ID,Label,Type,Image,birthPlaceLabel,copybirthplace,coordinate location,coordinate location 1,Final Latitude,coordinate location 2,Final Longitude,birthCountryLabel,deathPlaceLabel,deathCountryLabel,Samengestelde werkplaatsen,Samengestelde woonplaatsen,Bijhorendland,BijhorendlandLabel,CopyID,Latitude,Longitude
Q115818424,Achiel Piepers,Person,,Kuurne,Kuurne,"50.8519,3.2861",50.8519,50.8519,3.2861,3.2861,België,Ardooie,België,,,,,Q115818424,,
Q119013873,Achiel Van de Putte,Person,,Rollegem-Kapelle,Rollegem-Kapelle,"50.8683,3.1456",50.8683,50.8683,3.1456,3.1456,België,Veurne,België,,,,,Q119013873,,
Q119217729,Achille Croquison,Person,,Kortrijk,Kortrijk,"50.8275,3.265833333333333",50.8275,50.8275,3.265833333333333,3.265833333333333,België,Kortrijk,België,,,,,Q119217729,,
Q115834468,Achilles Bohyn,Person,,Kruishoutem,Kruishoutem,"50.9,3.5333333333333",50.9,50.9,3.5333333333333,3.5333333333333,België,Oostwinkel,België,,,,,Q115834468,,
Q123417058,Adela Pauline Courtens,Person,,Harelbeke,Harelbeke,"50.8567,3.3131",50.8567,50.8567,3.3131,3.3131,België,Harelbeke,België,,,,,Q123417058,,
Q125306156,Adelaida Antonia Vuylsteke,Person,,Menen,Menen,"50.795555555556,3.1216666666667",50.795555555556,50.795555555556,3.1216666666667,3.1216666666667,België,Kortrijk,België,,,,,Q125306156,,
Q113754119,Adolf De Wolf,Person,,Brugge,Bruges,"51.208888888888886,3.2241666666666666",51.208888888888886,51.208888888888886,3.2241666666666666,3.2241666666666666,België,,,,,,,Q113754119,,
Q2524668,Adolf Duclos,Person,http://commons.wikimedia.org/wiki/Special:FilePath/Adolf%20Duclos001.jpg,Brugge,Bruges,"51.208888888888886,3.2241666666666666",51.208888888888886,51.208888888888886,3.2241666666666666,3.2241666666666666,België,Brugge,België,,,,,Q2524668,,
Q4722117,Adolf Lootens,Person,,Brugge,Bruges,"51.208888888888886,3.2241666666666666",51.208888888888886,51.208888888888886,3.2241666666666666,3.2241666666666666,België,Highgate,Verenigd Koninkrijk,,,,,Q4722117,,
Q43140929,Adolf Pauwels,Person,,Berchem,Bergheim,"50.95406111111111,6.641238888888889",50.95406111111111,50.95406111111111,6.641238888888889,6.641238888888889,België,Antwerpen,België,,,,,Q43140929,,
Q100534520,Adolf Verriest,Person,http://commons.wikimedia.org/wiki/Special:FilePath/Adolf%20Karel%20vader%20Petrus%20moeder%20Carolina%20Verriest%20in%201861.jpg,Deerlijk,Deerlijk,"50.8533,3.3533",50.8533,50.8533,3.3533,3.3533,België,Kortrijk,België,,,,,Q100534520,,
Q5580544,Adrianus Bogaers,Person,http://commons.wikimedia.org/wiki/Special:FilePath/Adrianus%20Bogaers.jpg,Den Haag,The Hague,"52.08,4.31",52.08,52.08,4.31,4.31,Nederland,Spa,België,,,,,Q5580544,,
Q123051567,Agnes Cecilia Young,Person,,,,,,,,,,,,,,,,Q123051567,,
Q116687284,Agnes Mary Christophers,Person,,St Pancras,London Borough of Camden,"51.54277777777778,-0.15944444444444444",51.54277777777778,51.54277777777778,-0.15944444444444444,-0.15944444444444444,Verenigd Koninkrijk,,,,,,,Q116687284,,
Q115814290,Aimé Erneste Marie Dierick,Person,,Izegem,Izegem,"50.9172,3.215",50.9172,50.9172,3.215,3.215,België,Harelbeke,België,,,,,Q115814290,,
Q115834690,Aimé Lagae,Person,,Heule,Heule,"50.8428,3.2353",50.8428,50.8428,3.2353,3.2353,België,Brugge,België,,,,,Q115834690,,
Q15627098,Albany James Christie,Person,,Southwark,London Borough of Southwark,"51.503333333333,-0.080555555555556",51.503333333333,51.503333333333,-0.080555555555556,-0.080555555555556,Verenigd Koninkrijk,Groot-Londen,Verenigd Koninkrijk,,,,,Q15627098,,
Q15627098,Albany James Christie,Person,,Groot-Londen,Greater London,"51.5,-0.083333333333333",51.5,51.5,-0.083333333333333,-0.083333333333333,Verenigd Koninkrijk,Groot-Londen,Verenigd Koninkrijk,,,,,Q15627098,,
Q118772822,Albert Aimé Marie Vandewalle,Person,,,,,,,,,,,,,,,,Q118772822,,
Q586323,Albert Verwey,Person,http://commons.wikimedia.org/wiki/Special:FilePath/Portret%20van%20Albert%20Verwey%20Rijksmuseum%20SK-C-1680.jpeg,Amsterdam,Amsterdam,"52.36666666666667,4.883333333333333",52.36666666666667,52.36666666666667,4.883333333333333,4.883333333333333,Nederland,Noordwijk aan Zee,Nederland,,,,,Q586323,,
Q2832059,Albéric Emmanuel Henri Marie Ghislain Ruzette,Person,http://commons.wikimedia.org/wiki/Special:FilePath/Weekblad%20Pallieter%20-%20voorpagina%201924%2023%20baron%20ruzette.jpg,Sint-Joost-ten-Node,Saint-Josse-ten-Noode,"50.850833333333334,4.369166666666667",50.850833333333334,50.850833333333334,4.369166666666667,4.369166666666667,België,Brugge,België,,,,,Q2832059,,
Q56036018,Alexandre Bonvarlet,Person,http://commons.wikimedia.org/wiki/Special:FilePath/Alexandre%20Bonvarlet%20by%20Michel%20Berthaud.jpg,Duinkerke,Dunkirk,"51.037777777778,2.3763888888889",51.037777777778,51.037777777778,2.3763888888889,2.3763888888889,Frankrijk,Nieuw-Koudekerke,Frankrijk,,,,,Q56036018,,
Q125490771,Alexandre Marie Ghislain Gillès de Pélichy,Person,,Antwerpen,Province of Antwerp,"51.216666666667,4.4166666666667",51.216666666667,51.216666666667,4.4166666666667,4.4166666666667,België,Brugge,België,,,,,Q125490771,,
Q2332586,Alexis De Carne,Person,,Stavele,Alveringem,"51.0111,2.7108",51.0111,51.0111,2.7108,2.7108,België,Roeselare,België,,,,,Q2332586,,
Q119729450,Alfons Algoet,Person,,Brugge,Bruges,"51.208888888888886,3.2241666666666666",51.208888888888886,51.208888888888886,3.2241666666666666,3.2241666666666666,België,Brugge,België,,,,,Q119729450,,
Q118142378,Alfons Bouckaert,Person,,Beveren,Beveren,"51.2,4.25",51.2,51.2,4.25,4.25,België,Torhout,België,,,,,Q118142378,,
Q110039191,Alfons Dassonville,Person,,Heule,Heule,"50.8428,3.2353",50.8428,50.8428,3.2353,3.2353,België,Kortrijk,België,,,,,Q110039191,,
Q2100582,Alfons De Cock,Person,http://commons.wikimedia.org/wiki/Special:FilePath/Alfons%20de%20Cock%2C%20PA05233.jpg,Herdersem,Herdersem,"50.9714,4.0672",50.9714,50.9714,4.0672,4.0672,België,Antwerpen,België,,,,,Q2100582,,
Q2638823,Alfons Janssens,Person,http://commons.wikimedia.org/wiki/Special:FilePath/Alfons%20Janssens.jpg,Sint-Niklaas,Sint-Niklaas,"51.164444444444,4.1391666666667",51.164444444444,51.164444444444,4.1391666666667,4.1391666666667,België,Luzern,Zwitserland,,,,,Q2638823,,
Q56036059,Alfons Maria Napoleon Prayon-van Zuylen van Nyevelt,Person,,Gent,Ghent,"51.05361111111111,3.725277777777778",51.05361111111111,51.05361111111111,3.725277777777778,3.725277777777778,België,Twickenham,Verenigd Koninkrijk,,,,,Q56036059,,
Q2675588,Alfons Mervillie,Person,,Wontergem,Wontergem,"50.9794,3.4444",50.9794,50.9794,3.4444,3.4444,België,Kortrijk,België,,,,,Q2675588,,
Q2539969,Alfons Siffer,Person,http://commons.wikimedia.org/wiki/Special:FilePath/Alfons%20Siffer%201850-1941.jpg,Zomergem,Zomergem,"51.116666666667,3.5666666666667",51.116666666667,51.116666666667,3.5666666666667,3.5666666666667,België,Gent,België,,,,,Q2539969,,
Q119621396,Alfons Steinmetz,Person,,,,,,,,,,,,,,,,Q119621396,,
Q120973166,Alfons Van Doorne,Person,,Poeke,Poeke,"51.0411,3.4436",51.0411,51.0411,3.4436,3.4436,België,Aalter,België,,,,,Q120973166,,
Q2050293,Alfons Van Hee,Person,,Lo-Reninge,Lo-Reninge,"50.983333333333,2.75",50.983333333333,50.983333333333,2.75,2.75,België,Moere,België,,,,,Q2050293,,
Q26845752,Alfred Guichon de Grandpont,Person,,Dijon,Dijon,"47.323055555556,5.0419444444444",47.323055555556,47.323055555556,5.0419444444444,5.0419444444444,Frankrijk,Brest,Frankrijk,,,,,Q26845752,,
Q115820635,Alfred Neut,Person,,Gent,Ghent,"51.05361111111111,3.725277777777778",51.05361111111111,51.05361111111111,3.725277777777778,3.725277777777778,België,Calcutta,India,,,,,Q115820635,,
Q115815697,Aloysius De Visschere,Person,,Ruddervoorde,Ruddervoorde,"51.0956,3.2056",51.0956,51.0956,3.2056,3.2056,België,Emelgem,België,,,,,Q115815697,,
Q115833316,Aloysius Farasyn,Person,,Lichtervelde,Lichtervelde,"51.033333333333,3.1333333333333",51.033333333333,51.033333333333,3.1333333333333,3.1333333333333,België,Heestert,België,,,,,Q115833316,,
Q115979418,Aloysius Vandemaele,Person,,Zwevegem,Zwevegem,"50.8,3.3333333333333",50.8,50.8,3.3333333333333,3.3333333333333,België,Asper,België,,,,,Q115979418,,
Q115821483,Aloïs Baelen,Person,,Poperinge,Poperinge,"50.8547,2.7256",50.8547,50.8547,2.7256,2.7256,België,Kortrijk,België,,,,,Q115821483,,
Q2580620,Aloïs Nelis,Person,,Antwerpen,Province of Antwerp,"51.216666666667,4.4166666666667",51.216666666667,51.216666666667,4.4166666666667,4.4166666666667,België,Leuven,België,,,,,Q2580620,,
Q119013806,Aloïs Van de Pitte,Person,,Brugge,Bruges,"51.208888888888886,3.2241666666666666",51.208888888888886,51.208888888888886,3.2241666666666666,3.2241666666666666,België,Brugge,België,,,,,Q119013806,,
Q2298746,Aloïs Walgrave,Person,,Gent,Ghent,"51.05361111111111,3.725277777777778",51.05361111111111,51.05361111111111,3.725277777777778,3.725277777777778,België,Brugge,België,,,,,Q2298746,,
Q2450554,Alphonse De Leyn,Person,,Brugge,Bruges,"51.208888888888886,3.2241666666666666",51.208888888888886,51.208888888888886,3.2241666666666666,3.2241666666666666,België,Brugge,België,,,,,Q2450554,,
Q11071766,Alphonse de Voss,Person,,Mesen,Mesen,"50.766666666667,2.9",50.766666666667,50.766666666667,2.9,2.9,België,China,,,,,,Q11071766,,
Q11071766,Alphonse de Voss,Person,,Frankrijk,France,"47,2",47,47,2,2,Frankrijk,China,,,,,,Q11071766,,
Q2099446,Amaat Joos,Person,http://commons.wikimedia.org/wiki/Special:FilePath/Amaat%20Joos.jpg,Hamme,Hamme,"51.0919,4.1356",51.0919,51.0919,4.1356,4.1356,België,Gent,België,,,,,Q2099446,,
Q3421496,Amaat Vyncke,Person,http://commons.wikimedia.org/wiki/Special:FilePath/Amaat%20Vyncke.jpg,Zedelgem,Zedelgem,"51.1431,3.1361",51.1431,51.1431,3.1361,3.1361,België,Kibanga,Tanzania,,,,,Q3421496,,
Q970036,Amand Neut,Person,,Moorsele,Moorsele,"50.8403,3.1636",50.8403,50.8403,3.1636,3.1636,België,Gent,België,,,,,Q970036,,
Q2481707,Amand de Vos,Person,http://commons.wikimedia.org/wiki/Special:FilePath/Wazenaar%20Amand%20de%20Vos.jpg,Eksaarde,Eksaarde,"51.1469,3.9592",51.1469,51.1469,3.9592,3.9592,België,Gent,België,,,,,Q2481707,,
Q136750770,Amandus Cornelius Dequidt,Person,,Poperinge,Poperinge,"50.8547,2.7256",50.8547,50.8547,2.7256,2.7256,België,Poperinge,België,,,,,Q136750770,,
Q115831039,Amandus Devloo,Person,,Alveringem,Alveringem,"51.0111,2.7108",51.0111,51.0111,2.7108,2.7108,België,Lichtervelde,België,,,,,Q115831039,,
Q124619468,Amelia Vander Stichele,Person,http://commons.wikimedia.org/wiki/Special:FilePath/Schilderij%20Henri%20Dobbelaere%20Engelendale.jpg,Sint-Eloois-Winkel,Sint-Eloois-Winkel,"50.875,3.1803",50.875,50.875,3.1803,3.1803,België,Mariakerke,België,,,,,Q124619468,,
Q1280942,Amédée Visart de Bocarmé,Person,http://commons.wikimedia.org/wiki/Special:FilePath/Portret%20van%20burgemeester%20Am%C3%A9d%C3%A9e%20Visart%20de%20Bocarm%C3%A9%2C%20circa%201837%20-%20circa%201924%2C%20Groeningemuseum%2C%200041286000.jpg,Sint-Kruis,Saint Croix,"17.732,-64.748",17.732,17.732,-64.748,-64.748,België,Brugge,België,,,,,Q1280942,,
Q131923924,Amélie Emérentine Joseph Mullier,Person,,Moeskroen,Arrondissement of Mouscron,"50.75,3.2",50.75,50.75,3.2,3.2,België,Menen,België,,,,,Q131923924,,
Q122831276,Amélie Frère,Person,,Tongeren,Arrondissement of Tongeren,"50.85,5.5",50.85,50.85,5.5,5.5,België,Flône,België,,,,,Q122831276,,
Q119039774,Andries J. Winkler,Person,,Leeuwarden,Leeuwarden,"53.2,5.7833333333333",53.2,53.2,5.7833333333333,5.7833333333333,Nederland,Haarlem,Nederland,,,,,Q119039774,,
Q13429634,Angelus August Eugeen Angillis,Person,,,,,,,,,,,,,,,,Q13429634,,
Q115842281,Angelus Dumelie,Person,,Poperinge,Poperinge,"50.8547,2.7256",50.8547,50.8547,2.7256,2.7256,België,Kortrijk,België,,,,,Q115842281,,
Q123050649,Ann Jordan,Person,,Engeland,England,"53,-1",53,53,-1,-1,Verenigd Koninkrijk,,,,,,,Q123050649,,
Q116656531,Anna Demets,Person,http://commons.wikimedia.org/wiki/Special:FilePath/Portretfoto%20Anna%20Demets.jpg,Kortrijk,Kortrijk,"50.8275,3.265833333333333",50.8275,50.8275,3.265833333333333,3.265833333333333,België,,,,,,,Q116656531,,
Q116508558,Anne Hill,Person,,Pendleton,Pendleton,"45.669722222222,-118.79138888889",45.669722222222,45.669722222222,-118.79138888889,-118.79138888889,Verenigd Koninkrijk,Barton upon Irwell,Verenigd Koninkrijk,,,,,Q116508558,,
Q115830433,Antoine Wemaer,Person,,Brugge,Bruges,"51.208888888888886,3.2241666666666666",51.208888888888886,51.208888888888886,3.2241666666666666,3.2241666666666666,België,Brugge,België,,,,,Q115830433,,
Q2360599,Antoon Jozef Witteryck,Person,http://commons.wikimedia.org/wiki/Special:FilePath/Wytterick%2023.JPG,Oostkamp,Oostkamp,"51.1544,3.2353",51.1544,51.1544,3.2353,3.2353,België,Assebroek,België,,,,,Q2360599,,
Q62117109,Antoon Verwaetermeulen,Person,,Kortrijk,Kortrijk,"50.8275,3.265833333333333",50.8275,50.8275,3.265833333333333,3.265833333333333,België,Brugge,België,,,,,Q62117109,,
Q120897770,Armand Valcke,Person,,Ingelmunster,Ingelmunster,"50.9208,3.2533",50.9208,50.9208,3.2533,3.2533,België,,,,,,,Q120897770,,
Q115979140,Arsenius Dehulster,Person,,Roeselare,Arrondissement of Roeselare,"50.946667,3.123333",50.946667,50.946667,3.123333,3.123333,België,Kortrijk,België,,,,,Q115979140,,
Q3450211,Arthur De Schrevel,Person,,Wervik,Wervik,"50.7797,3.04",50.7797,50.7797,3.04,3.04,België,Brugge,België,,,,,Q3450211,,
Q122971839,Arthur Jean Botte,Person,,Gent,Ghent,"51.05361111111111,3.725277777777778",51.05361111111111,51.05361111111111,3.725277777777778,3.725277777777778,België,Brugge,België,,,,,Q122971839,,
Q115818861,Arthur Lewylle,Person,,Vlamertinge,Ypres,"50.850833333333334,2.885",50.850833333333334,50.850833333333334,2.885,2.885,België,Ukkel,België,,,,,Q115818861,,
Q115834833,Arthur Maria Gustavus Florimond Plettinck,Person,,Meulebeke,Meulebeke,"50.9497,3.2869",50.9497,50.9497,3.2869,3.2869,België,Tongerlo,België,,,,,Q115834833,,
Q120164850,Arthur Robinson,Person,,Newport,Newport,"41.488002,-71.312622",41.488002,41.488002,-71.312622,-71.312622,Verenigd Koninkrijk,Brugge,België,,,,,Q120164850,,
Q115979812,August Busschaert,Person,,Marke,Marche,"43.316666666667,13",43.316666666667,43.316666666667,13,13,België,Nieuwpoort,België,,,,,Q115979812,,
Q2215154,August Cuppens,Person,,Beringen,Beringen,"47.69643,8.57543",47.69643,47.69643,8.57543,8.57543,België,Loksbergen,België,,,,,Q2215154,,
Q120639934,August Delbaere,Person,,Aalbeke,Aalbeke,"50.7781,3.2294",50.7781,50.7781,3.2294,3.2294,België,Kortrijk,België,,,,,Q120639934,,
Q115818168,August Hoflack,Person,,Staden,Freetown Christiania,"55.673588888889,12.599711111111",55.673588888889,55.673588888889,12.599711111111,12.599711111111,België,Oostvleteren,België,,,,,Q115818168,,
Q115839088,August Laporta,Person,,Lier,Lier,"51.13111111111111,4.5697222222222225",51.13111111111111,51.13111111111111,4.5697222222222225,4.5697222222222225,België,Lier,België,,,,,Q115839088,,
Q119625085,August Selosse,Person,,,,,,,,,,,,,,,,Q119625085,,
Q764378,August Vermeylen,Person,http://commons.wikimedia.org/wiki/Special:FilePath/AugustVermeylen2.jpg,Stedelijk gebied Brussel,Brussels metropolitan area,"50.846666666667,4.3525",50.846666666667,50.846666666667,4.3525,4.3525,België,Ukkel,België,,,,,Q764378,,
Q125535110,August William McDonogh,Person,,Lambeth,Lambeth,"51.4903,-0.1193",51.4903,51.4903,-0.1193,-0.1193,Verenigd Koninkrijk,Hastings,Verenigd Koninkrijk,,,,,Q125535110,,
Q122842403,Augusta Lewis Bampfield,Person,,Londen,London,"51.507222222222,-0.1275",51.507222222222,51.507222222222,-0.1275,-0.1275,Verenigd Koninkrijk,Hertford,Verenigd Koninkrijk,,,,,Q122842403,,
Q117246862,Augusta Maria Mathildis Vyncke,Person,,Zedelgem,Zedelgem,"51.1431,3.1361",51.1431,51.1431,3.1361,3.1361,België,Snellegem,België,,,,,Q117246862,,
Q2490990,Auguste Reynaert,Person,http://commons.wikimedia.org/wiki/Special:FilePath/Kortrijk%20Astridpark-11.JPG,Anzegem,Anzegem,"50.8336,3.4783",50.8336,50.8336,3.4783,3.4783,België,Kortrijk,België,,,,,Q2490990,,
Q2059291,Auguste Reyns,Person,,Brugge,Bruges,"51.208888888888886,3.2241666666666666",51.208888888888886,51.208888888888886,3.2241666666666666,3.2241666666666666,België,Brugge,België,,,,,Q2059291,,
Q2658862,Auguste Van Speybrouck,Person,,Brugge,Bruges,"51.208888888888886,3.2241666666666666",51.208888888888886,51.208888888888886,3.2241666666666666,3.2241666666666666,België,Brugge,België,,,,,Q2658862,,
Q115813025,Auguste de Laage de Bellefaye,Person,,Sint-Omaars,Saint-Omer,"50.748333333333,2.2608333333333",50.748333333333,50.748333333333,2.2608333333333,2.2608333333333,Frankrijk,Sint-Andries,België,,,,,Q115813025,,
Q120999304,Augustijn Van Heuverswyn,Person,,Nazareth,Nérac,"44.136111111111,0.33944444444444",44.136111111111,44.136111111111,0.33944444444444,0.33944444444444,België,Aalst,België,,,,,Q120999304,,
Q115825488,Augustin Frutsaert,Person,,Sint-Omaars,Saint-Omer,"50.748333333333,2.2608333333333",50.748333333333,50.748333333333,2.2608333333333,2.2608333333333,Frankrijk,Brugge,België,,,,,Q115825488,,
Q115844105,Augustin Van Becelaere,Person,,Kortrijk,Kortrijk,"50.8275,3.265833333333333",50.8275,50.8275,3.265833333333333,3.265833333333333,België,Kachtem,België,,,,,Q115844105,,
Q115979130,Augustinus De Geetere,Person,,Brugge,Bruges,"51.208888888888886,3.2241666666666666",51.208888888888886,51.208888888888886,3.2241666666666666,3.2241666666666666,België,Brugge,België,,,,,Q115979130,,
Q115835531,Augustinus Ghequiere,Person,,Rollegem,Rollegem,"50.7686,3.2622",50.7686,50.7686,3.2622,3.2622,België,Brussel,België,,,,,Q115835531,,
Q115840920,Augustus Declerc,Person,,Nieuwpoort,Nieuwpoort,"51.129444444444,2.7513888888889",51.129444444444,51.129444444444,2.7513888888889,2.7513888888889,België,Salford,Verenigd Koninkrijk,,,,,Q115840920,,
Q115823355,Augustus Rodts,Person,,Knesselare,Knesselare,"51.1389,3.4139",51.1389,51.1389,3.4139,3.4139,België,Middelburg,België,,,,,Q115823355,,
Q4865289,Bartholomew Woodlock,Person,http://commons.wikimedia.org/wiki/Special:FilePath/Bartholomew%20Woodlock%2C%20portrait.png,Dublin,Dublin,"53.34972222222222,-6.260277777777778",53.34972222222222,53.34972222222222,-6.260277777777778,-6.260277777777778,Ierland,Dublin,Ierland,,,,,Q4865289,,
Q115826830,Benedictus Goeman,Person,,Heldergem,Haaltert,"50.9,4",50.9,50.9,4,4,België,Moerzeke,België,,,,,Q115826830,,
Q822307,Bernard Bernard,Person,http://commons.wikimedia.org/wiki/Special:FilePath/%28Baumg1889%29%20Bernard%20Bernard%20%28Kathol.%20Missionar%20auf%20Island%29.jpg,Mogues,Mogues,"49.651388888889,5.2791666666667",49.651388888889,49.651388888889,5.2791666666667,5.2791666666667,Frankrijk,Noirétable,Frankrijk,,,,,Q822307,,
Q122884053,Bernard Joseph Weale,Person,,Brugge,Bruges,"51.208888888888886,3.2241666666666666",51.208888888888886,51.208888888888886,3.2241666666666666,3.2241666666666666,België,Australië,Australië,,,,,Q122884053,,
Q115812384,Bernardus Josephus Colier,Person,,Brugge,Bruges,"51.208888888888886,3.2241666666666666",51.208888888888886,51.208888888888886,3.2241666666666666,3.2241666666666666,België,Westkapelle,België,,,,,Q115812384,,
Q122818902,Bertha Wachowsky,Person,,Münster,Münster,"51.9625,7.6255555555556",51.9625,51.9625,7.6255555555556,7.6255555555556,Duitsland,,,,,,,Q122818902,,
Q115829623,Bruno De Splenter,Person,,Ooigem,Ooigem,"50.8925,3.3364",50.8925,50.8925,3.3364,3.3364,België,Kortrijk,België,,,,,Q115829623,,
Q115836783,Bruno Joseph Jean Vandale,Person,,Kortrijk,Kortrijk,"50.8275,3.265833333333333",50.8275,50.8275,3.265833333333333,3.265833333333333,België,Poperinge,België,,,,,Q115836783,,
Q115839360,Bruno Van Hove,Person,http://commons.wikimedia.org/wiki/Special:FilePath/A%20Monsieur%20le%20chanoine%20Van%20Hove%2C%201869%2C%20Musea%20Brugge%2C%200020.GRO0352.III.jpg,Izegem,Izegem,"50.9172,3.215",50.9172,50.9172,3.215,3.215,België,Tielt,België,,,,,Q115839360,,
Q115308515,Bruno Vander Stichele,Person,,Gullegem,Gullegem,"50.8422,3.2056",50.8422,50.8422,3.2056,3.2056,België,Gullegem,België,,,,,Q115308515,,
Q2154331,Caesar Gezelle,Person,,Brugge,Bruges,"51.208888888888886,3.2241666666666666",51.208888888888886,51.208888888888886,3.2241666666666666,3.2241666666666666,België,Moorslede,België,,,,,Q2154331,,
Q2154331,Caesar Gezelle,Person,,Brugge,Bruges,"51.208888888888886,3.2241666666666666",51.208888888888886,51.208888888888886,3.2241666666666666,3.2241666666666666,België,Moorsele,België,,,,,Q2154331,,
Q115840234,Camiel Roelandts,Person,,Ingelmunster,Ingelmunster,"50.9208,3.2533",50.9208,50.9208,3.2533,3.2533,België,Harelbeke,België,,,,,Q115840234,,
Q120729190,Camiel-Hector Marichal,Person,,Beernem,Beernem,"51.1428,3.3408",51.1428,51.1428,3.3408,3.3408,België,Argentinië,Argentinië,,,,,Q120729190,,
Q117409336,Camille Lateur,Person,,Avelgem,Avelgem,"50.7753,3.4442",50.7753,50.7753,3.4442,3.4442,België,Avelgem,België,,,,,Q117409336,,
Q2203619,Camille Looten,Person,http://commons.wikimedia.org/wiki/Special:FilePath/Canon%20Camille%20Looten.jpg,Noordpene,Noordpeene,"50.806111111111,2.3980555555556",50.806111111111,50.806111111111,2.3980555555556,2.3980555555556,Frankrijk,Rijsel,Frankrijk,,,,,Q2203619,,
Q123689972,Camillus Delaere,Person,,Hulste,Hulste,"50.8819,3.2958",50.8819,50.8819,3.2958,3.2958,België,Sint-Andries,België,,,,,Q123689972,,
Q5026719,Camillus Paul Maes,Person,http://commons.wikimedia.org/wiki/Special:FilePath/Bishop%20Camillus%20Paul%20Maes.jpg,Kortrijk,Kortrijk,"50.8275,3.265833333333333",50.8275,50.8275,3.265833333333333,3.265833333333333,België,Covington,Verenigde Staten,,,,,Q5026719,,
Q123399443,Carolina Theresia Lefebvre,Person,,Kortrijk,Kortrijk,"50.8275,3.265833333333333",50.8275,50.8275,3.265833333333333,3.265833333333333,België,Kortrijk,België,,,,,Q123399443,,
Q122775600,Caroline Harriet Locke,Person,,Newcastle West,Newcastle West,"52.450988,-9.054623",52.450988,52.450988,-9.054623,-9.054623,Ierland,Sarrebourg,Frankrijk,,,,,Q122775600,,
Q115982585,Carolus Ludovicus Brondel,Person,,Brugge,Bruges,"51.208888888888886,3.2241666666666666",51.208888888888886,51.208888888888886,3.2241666666666666,3.2241666666666666,België,Brugge,België,,,,,Q115982585,,
Q115811027,Carolus Ludovicus Crupelant,Person,,Gullegem,Gullegem,"50.8422,3.2056",50.8422,50.8422,3.2056,3.2056,België,Roesbrugge-Haringe,België,,,,,Q115811027,,
Q136759863,Carolus Philippus Joannes Marie Josephus de Patin de Langemarck,Person,,Langemark,Langemark,"50.9133,2.9181",50.9133,50.9133,2.9181,2.9181,België,Langemark,België,,,,,Q136759863,,
Q115839380,Carolus Surmont,Person,,Zevekote,Zevekote,"51.1372,2.9211",51.1372,51.1372,2.9211,2.9211,België,Zevekote,België,,,,,Q115839380,,
Q115838420,Carolus Van den Broucke,Person,,Eernegem,Eernegem,"51.1297,3.0275",51.1297,51.1297,3.0275,3.0275,België,Moorslede,België,,,,,Q115838420,,
Q115979029,Casimir Affenaer,Person,,Menen,Menen,"50.795555555556,3.1216666666667",50.795555555556,50.795555555556,3.1216666666667,3.1216666666667,België,Veurne,België,,,,,Q115979029,,
Q111744944,Casper Lambertus van Langenhuijsen,Person,,s-Hertogenbosch,'s-Hertogenbosch,"51.6892,5.3031",51.6892,51.6892,5.3031,5.3031,Nederland,Amsterdam,Nederland,,,,,Q111744944,,
Q116621487,Catharine Macdaniel,Person,,Londen,London,"51.507222222222,-0.1275",51.507222222222,51.507222222222,-0.1275,-0.1275,Verenigd Koninkrijk,Londen,Verenigd Koninkrijk,,,,,Q116621487,,
Q122830932,Catherine Hart,Person,,Dublin,Dublin,"53.34972222222222,-6.260277777777778",53.34972222222222,53.34972222222222,-6.260277777777778,-6.260277777777778,Ierland,Brighton,Verenigd Koninkrijk,,,,,Q122830932,,
Q123422368,Catherine O'Farrell,Person,,Belfast,Belfast,"54.596666666666664,-5.93",54.596666666666664,54.596666666666664,-5.93,-5.93,Verenigd Koninkrijk,,,,,,,Q123422368,,
Q122853878,Catherine Simpson Mackenzie,Person,,Fortrose,Fortrose,"57.5815,-4.13237",57.5815,57.5815,-4.13237,-4.13237,Verenigd Koninkrijk,,,,,,,Q122853878,,
Q116620739,Catherine de Kyvere,Person,,Heule,Heule,"50.8428,3.2353",50.8428,50.8428,3.2353,3.2353,België,,,,,,,Q116620739,,
Q123600982,Cathérine Joséphine Mesnage,Person,,Brussel,City of Brussels,"50.846666666666664,4.351666666666667",50.846666666666664,50.846666666666664,4.351666666666667,4.351666666666667,België,Kortrijk,België,,,,,Q123600982,,
Q118189670,Cecilia Sarah De Lisle,Person,,Edinburgh,Edinburgh,"55.95333333333333,-3.1891666666666665",55.95333333333333,55.95333333333333,-3.1891666666666665,-3.1891666666666665,Verenigd Koninkrijk,Londen,Verenigd Koninkrijk,,,,,Q118189670,,
Q136759797,Charles Adolphe De Waele,Person,,Roubaix,Roubaix,"50.69,3.1816666666667",50.69,50.69,3.1816666666667,3.1816666666667,Frankrijk,Klerken,België,,,,,Q136759797,,
Q56174577,Charles Alban Buckler,Person,,,,,,,,,,,,,,,,Q56174577,,
Q1877721,Charles Carton,Person,http://commons.wikimedia.org/wiki/Special:FilePath/Charles%20Carton.jpg,Pittem,Pittem,"50.983333333333,3.2666666666667",50.983333333333,50.983333333333,3.2666666666667,3.2666666666667,België,Brugge,België,,,,,Q1877721,,
Q2715338,Charles Delcour,Person,http://commons.wikimedia.org/wiki/Special:FilePath/Membres%20du%20Minist%C3%A8re%20%28Delcour%29.jpg,Dolhain,Limbourg,"50.6122,5.9403",50.6122,50.6122,5.9403,5.9403,België,Leuven,België,,,,,Q2715338,,
Q120640333,Charles Denys,Person,,,,,,,,,,,,,,,,Q120640333,,
Q136805616,Charles François Joseph Soudan,Person,,Aalter,Aalter,"51.083333333333,3.45",51.083333333333,51.083333333333,3.45,3.45,België,Gent,België,,,,,Q136805616,,
Q661733,Charles Gillès de Pelichy,Person,,Brugge,Bruges,"51.208888888888886,3.2241666666666666",51.208888888888886,51.208888888888886,3.2241666666666666,3.2241666666666666,België,Brugge,België,,,,,Q661733,,
Q125472556,Charles Grant Edmonstone,Person,,Dumbarton,Dumbarton,"55.948611111111,-4.5472222222222",55.948611111111,55.948611111111,-4.5472222222222,-4.5472222222222,Verenigd Koninkrijk,Pietermaritzburg,Zuid-Afrika,,,,,Q125472556,,
Q5006521,Charles Hodgson Fowler,Person,http://commons.wikimedia.org/wiki/Special:FilePath/Church%20of%20St%20Oswald%20-%20detail%20of%20stained%20glass%20window%20depicting%20church%20architect%2C%20Charles%20Hodgson%20Fowler%20%28cropped%29.jpg,Nottinghamshire,Nottinghamshire,"53.166666666667,-1",53.166666666667,53.166666666667,-1,-1,Verenigd Koninkrijk,Durham,Verenigd Koninkrijk,,,,,Q5006521,,
Q122974430,Charles Joseph Pagliano,Person,,,,,,,,,,,,,,,,Q122974430,,
Q119040354,Charles Joseph Vercauteren,Person,,Brugge,Bruges,"51.208888888888886,3.2241666666666666",51.208888888888886,51.208888888888886,3.2241666666666666,3.2241666666666666,België,Brugge,België,,,,,Q119040354,,
Q115817919,Charles Louis Goemaere,Person,,Meulebeke,Meulebeke,"50.9497,3.2869",50.9497,50.9497,3.2869,3.2869,België,Ruiselede,België,,,,,Q115817919,,
Q122971101,Charles Louis Poublon,Person,,Wevelgem,Wevelgem,"50.8081,3.1839",50.8081,50.8081,3.1839,3.1839,België,Kortrijk,België,,,,,Q122971101,,
Q55233295,Charles Van Cauwenberghe,Person,http://commons.wikimedia.org/wiki/Special:FilePath/Charles%20van%20Cauwenberghe.%20Photograph%20by%20J.C.%20Jaeger.%20Wellcome%20V0028110.jpg,Wortegem-Petegem,Wortegem-Petegem,"50.8536,3.5183",50.8536,50.8536,3.5183,3.5183,België,Gent,België,,,,,Q55233295,,
Q3538623,Charles van Caloen,Person,http://commons.wikimedia.org/wiki/Special:FilePath/PM%20161806%20B%20Loppem%20%28Charles%20van%20Caloen%29.jpg,Brugge,Bruges,"51.208888888888886,3.2241666666666666",51.208888888888886,51.208888888888886,3.2241666666666666,3.2241666666666666,België,Brugge,België,,,,,Q3538623,,
Q120555811,Charles-Jean De Mulié,Person,,Kortrijk,Kortrijk,"50.8275,3.265833333333333",50.8275,50.8275,3.265833333333333,3.265833333333333,België,Kortrijk,België,,,,,Q120555811,,
Q1149378,"Charlotte Fitzalan-Howard, Duchess of Norfolk",Person,http://commons.wikimedia.org/wiki/Special:FilePath/Charlotte%20Sophia%2C%20Countess%20of%20Surrey%20%281788-1870%29%2C%20by%20studio%20of%20Sir%20Thomas%20Lawrence.jpg,Londen,London,"51.507222222222,-0.1275",51.507222222222,51.507222222222,-0.1275,-0.1275,Verenigd Koninkrijk,Londen,Verenigd Koninkrijk,,,,,Q1149378,,
Q122974373,Clara Andrews,Person,,,,,,,,,,,,,,,,Q122974373,,
Q115104760,Clementia Hiers,Person,http://commons.wikimedia.org/wiki/Special:FilePath/Portret%20van%20Clementia%20Hiers%20%28Hendrik%20De%20Pondt%2C%201878%29.jpg,Kortrijk,Kortrijk,"50.8275,3.265833333333333",50.8275,50.8275,3.265833333333333,3.265833333333333,België,Kortrijk,België,,,,,Q115104760,,
Q116510419,Colette Virginie Parvost,Person,,Kortrijk,Kortrijk,"50.8275,3.265833333333333",50.8275,50.8275,3.265833333333333,3.265833333333333,België,Kortrijk,België,,,,,Q116510419,,
Q2457997,Constant Hansen,Person,http://commons.wikimedia.org/wiki/Special:FilePath/Hansen%2C%20Constant%20Jacob%20%281833-1910%29%3B%20letterkundige%20en%20hoofdbibliothecaris%20stadsbibliotheek%20Antwerpen%2C%20Haeck%2C%20Leopold%2C%20Felixarchief%2C%2012%209296%20recto%20%28cropped%29.jpg,Vlissingen,Vlissingen,"51.45,3.5833333333333",51.45,51.45,3.5833333333333,3.5833333333333,Nederland,Brasschaat,België,,,,,Q2457997,,
Q115819047,Constant Van Coillie,Person,,Hooglede,Hooglede,"50.9781,3.0817",50.9781,50.9781,3.0817,3.0817,België,Kortrijk,België,,,,,Q115819047,,
Q115816445,Constantin Lagae,Person,,Roeselare,Arrondissement of Roeselare,"50.946667,3.123333",50.946667,50.946667,3.123333,3.123333,België,,,,,,,Q115816445,,
Q115837593,Constantin Thoma,Person,,Oostende,Ostend,"51.225833333333334,2.9194444444444443",51.225833333333334,51.225833333333334,2.9194444444444443,2.9194444444444443,België,Oostende,België,,,,,Q115837593,,
Q115837342,Constantinus Roelandts,Person,,Ingelmunster,Ingelmunster,"50.9208,3.2533",50.9208,50.9208,3.2533,3.2533,België,Dikkebus,België,,,,,Q115837342,,
Q115839443,Constantinus Van Zieleghem,Person,,Tielt,Arrondissement of Tielt,"51,3.3",51,51,3.3,3.3,België,Brugge,België,,,,,Q115839443,,
Q113466955,Cordelia Van de Wiele,Person,http://commons.wikimedia.org/wiki/Special:FilePath/Cordelia%20Van%20de%20Wiele%20-%20secretaresse%20Guido%20Gezelle.jpg,Kortrijk,Kortrijk,"50.8275,3.265833333333333",50.8275,50.8275,3.265833333333333,3.265833333333333,België,Kortrijk,België,,,,,Q113466955,,
Q120793054,Cuthbert Robinson,Person,,Middlesex,Middlesex,"51.5,-0.41666666666667",51.5,51.5,-0.41666666666667,-0.41666666666667,Verenigd Koninkrijk,Londen,Verenigd Koninkrijk,,,,,Q120793054,,
Q98322098,Cyriel Delaere,Person,,Lendelede,Lendelede,"50.8858,3.2372",50.8858,50.8858,3.2372,3.2372,België,Leffinge,België,,,,,Q98322098,,
Q122884757,Cyril James Weale,Person,,Brugge,Bruges,"51.208888888888886,3.2241666666666666",51.208888888888886,51.208888888888886,3.2241666666666666,3.2241666666666666,België,Q5125864,Verenigd Koninkrijk,,,,,Q122884757,,
Q122779793,Delphine Frederica Marie Blancke,Person,,Dadizele,Dadizele,"50.8506,3.0975",50.8506,50.8506,3.0975,3.0975,België,Dadizele,België,,,,,Q122779793,,
Q118998471,Denis Auguste Julien Roger,Person,,Brugge,Bruges,"51.208888888888886,3.2241666666666666",51.208888888888886,51.208888888888886,3.2241666666666666,3.2241666666666666,België,Brugge,België,,,,,Q118998471,,
Q115834834,Desideer Meersseman,Person,,Geluveld,Geluveld,"50.8339,2.9939",50.8339,50.8339,2.9939,2.9939,België,Moorsele,België,,,,,Q115834834,,
Q120556534,Desiderius De Pau,Person,,Maldegem,Maldegem,"51.2089,3.4464",51.2089,51.2089,3.4464,3.4464,België,Maldegem,België,,,,,Q120556534,,
Q118733026,Domenico Macry Correale,Person,,Siderno,Siderno,"38.266666666667,16.3",38.266666666667,38.266666666667,16.3,16.3,Italië,Siderno,Italië,,,,,Q118733026,,
Q126113249,Domenico Pisani,Person,,Palmata,Palmata,"43.91605,10.54721",43.91605,43.91605,10.54721,10.54721,Italië,Dublin,Ierland,,,,,Q126113249,,
Q117244211,Dymphna Gezelle,Person,http://commons.wikimedia.org/wiki/Special:FilePath/Foto%20Dymphna%20Gezelle%20%282%29.jpg,Brugge,Bruges,"51.208888888888886,3.2241666666666666",51.208888888888886,51.208888888888886,3.2241666666666666,3.2241666666666666,België,Leuven,België,,,,,Q117244211,,
Q55911879,Désiré Claes,Person,,Neerlinter,Linter,"50.8,5.05",50.8,50.8,5.05,5.05,België,Namen,België,,,,,Q55911879,,
Q115836065,Edezius Goormachtigh,Person,,Dottenijs,Dottignies,"50.7272,3.3031",50.7272,50.7272,3.3031,3.3031,België,Luik,België,,,,,Q115836065,,
Q377071,Edgar Tinel,Person,http://commons.wikimedia.org/wiki/Special:FilePath/Edgar%20Tinel%201911.jpg,Sinaai,Sinaai,"51.1592,4.0442",51.1592,51.1592,4.0442,4.0442,België,Brussel,België,,,,,Q377071,,
Q122903342,Edith-Cathare Smith,Person,,Londen,London,"51.507222222222,-0.1275",51.507222222222,51.507222222222,-0.1275,-0.1275,Verenigd Koninkrijk,Marylebone,Verenigd Koninkrijk,,,,,Q122903342,,
Q120718341,Edmond Amand Constant Lecompte,Person,,Wervik,Wervik,"50.7797,3.04",50.7797,50.7797,3.04,3.04,België,,,,,,,Q120718341,,
Q136762833,Edmond Antoine Marie Gilleman,Person,,Brugge,Bruges,"51.208888888888886,3.2241666666666666",51.208888888888886,51.208888888888886,3.2241666666666666,3.2241666666666666,België,Brugge,België,,,,,Q136762833,,
Q118120867,Edmond De Plancke,Person,,Brugge,Bruges,"51.208888888888886,3.2241666666666666",51.208888888888886,51.208888888888886,3.2241666666666666,3.2241666666666666,België,Brugge,België,,,,,Q118120867,,
Q13575367,Edmond Denys,Person,,Roeselare,Arrondissement of Roeselare,"50.946667,3.123333",50.946667,50.946667,3.123333,3.123333,België,Lichtervelde,België,,,,,Q13575367,,
Q136759995,Edmond Désiré Deckmyn,Person,,Roeselare,Arrondissement of Roeselare,"50.946667,3.123333",50.946667,50.946667,3.123333,3.123333,België,Brussel,België,,,,,Q136759995,,
Q115820636,Edmond Neut,Person,,Gent,Ghent,"51.05361111111111,3.725277777777778",51.05361111111111,51.05361111111111,3.725277777777778,3.725277777777778,België,Kandy,Sri Lanka,,,,,Q115820636,,
Q115836962,Edmond Soenen,Person,,Wingene,Wingene,"51.05,3.2666666666667",51.05,51.05,3.2666666666667,3.2666666666667,België,Brugge,België,,,,,Q115836962,,
Q4902927,Edmond Van Hee,Person,,Lo,Province of Lodi,"45.316666666667,9.5",45.316666666667,45.316666666667,9.5,9.5,België,Veurne,België,,,,,Q4902927,,
Q18533827,Edmond Van der Straeten,Person,http://commons.wikimedia.org/wiki/Special:FilePath/Portret%20van%20Edmond%20Van%20der%20Straeten%201895%20barcode%20910000105444.jpg,Oudenaarde,Oudenaarde,"50.85,3.6",50.85,50.85,3.6,3.6,België,Oudenaarde,België,,,,,Q18533827,,
Q119690392,Edmond Wallays,Person,,Leffinge,Löffingen,"47.883888888889,8.3436111111111",47.883888888889,47.883888888889,8.3436111111111,8.3436111111111,België,Q7683408,Maleisië,,,,,Q119690392,,
Q118792556,Edmund Benedict Hicks,Person,,Emsworth,Emsworth,"40.512222222222,-80.095555555556",40.512222222222,40.512222222222,-80.095555555556,-80.095555555556,Verenigd Koninkrijk,Nantes,Frankrijk,,,,,Q118792556,,
,,,,,,"40.51007,-80.0945",40.51007,40.51007,-80.0945,-80.0945,,,,,,,,,,
Q122963358,Edouard Amand Justin Marie Neut,Person,,Gent,Ghent,"51.05361111111111,3.725277777777778",51.05361111111111,51.05361111111111,3.725277777777778,3.725277777777778,België,Brugge,België,,,,,Q122963358,,
Q120442396,Edouard François Huys,Person,,Geluwe,Geluwe,"50.81,3.0775",50.81,50.81,3.0775,3.0775,België,Poperinge,België,,,,,Q120442396,,
,,,,,,"50.810721,3.077446",50.810721,50.810721,3.077446,3.077446,,,,,,,,,,
Q120721942,Edouard Lietaer,Person,,,,,,,,,,,,,,,,Q120721942,,
Q115839320,Edouardus Vyncke,Person,,Beveren,Beveren,"51.2,4.25",51.2,51.2,4.25,4.25,België,Kortrijk,België,,,,,Q115839320,,
Q120550899,Eduard De Jonghe,Person,,Pittem,Pittem,"50.983333333333,3.2666666666667",50.983333333333,50.983333333333,3.2666666666667,3.2666666666667,België,Izegem,België,,,,,Q120550899,,
Q115839353,Eduard Verraes,Person,,Menen,Menen,"50.795555555556,3.1216666666667",50.795555555556,50.795555555556,3.1216666666667,3.1216666666667,België,Tielt,België,,,,,Q115839353,,
Q122963909,Eduardus Edmondus Van Wtberghe,Person,,Poperinge,Poperinge,"50.8547,2.7256",50.8547,50.8547,2.7256,2.7256,België,Poperinge,België,,,,,Q122963909,,
Q2345694,Edward De Gryse,Person,http://commons.wikimedia.org/wiki/Special:FilePath/Edward%20De%20Gryse%20-%20priester-deken%20-%20Kortrijk.jpg,Roeselare,Arrondissement of Roeselare,"50.946667,3.123333",50.946667,50.946667,3.123333,3.123333,België,Kortrijk,België,,,,,Q2345694,,
Q115979952,Edward Declercq,Person,,Lauwe,Yablonovka,"51.05833333,46.02083333",51.05833333,51.05833333,46.02083333,46.02083333,België,Kortrijk,België,,,,,Q115979952,,
,,,,,,"51.058055555556,46.016666666667",51.058055555556,51.058055555556,46.016666666667,46.016666666667,,,,,,,,,,
Q2360914,Edward Gailliard,Person,,Brugge,Bruges,"51.208888888888886,3.2241666666666666",51.208888888888886,51.208888888888886,3.2241666666666666,3.2241666666666666,België,Brugge,België,,,,,Q2360914,,
Q13575404,Edward Van Even,Person,http://commons.wikimedia.org/wiki/Special:FilePath/EdwardVanEven.jpg,Leuven,Arrondissement of Leuven,"50.9,4.8",50.9,50.9,4.8,4.8,België,Leuven,België,,,,,Q13575404,,
Q113925472,Edward Van Robays,Person,,Egem,Pittem,"50.983333333333,3.2666666666667",50.983333333333,50.983333333333,3.2666666666667,3.2666666666667,België,Indië,,,,,,Q113925472,,
Q110039219,Edward Verschelde,Person,,Otegem,Otegem,"50.8072,3.4194",50.8072,50.8072,3.4194,3.4194,België,Kuurne,België,,,,,Q110039219,,
Q119217748,Edward Vlietinck,Person,,Oostende,Ostend,"51.225833333333334,2.9194444444444443",51.225833333333334,51.225833333333334,2.9194444444444443,2.9194444444444443,België,Berchem,België,,,,,Q119217748,,
Q123697088,Edward William Fulker,Person,,"Hawthorn Hill, Berkshire","Hawthorn Hill, Berkshire",,,,,,Verenigd Koninkrijk,East Preston,Verenigd Koninkrijk,,,,,Q123697088,,
Q116621171,Elisa Robinson,Person,,Londen,London,"51.507222222222,-0.1275",51.507222222222,51.507222222222,-0.1275,-0.1275,Verenigd Koninkrijk,Brugge,België,,,,,Q116621171,,
Q121078322,Elisabeth Josèphe Thérèse van den Broeck,Person,,Sint-Niklaas,Sint-Niklaas,"51.164444444444,4.1391666666667",51.164444444444,51.164444444444,4.1391666666667,4.1391666666667,België,Kortrijk,België,,,,,Q121078322,,
Q116689485,Elisabeth Latham,Person,,Killarney,Killarney,"49.1833,-99.6628",49.1833,49.1833,-99.6628,-99.6628,Ierland,Brugge,België,,,,,Q116689485,,
Q117229438,Elodie De Beer,Person,,Elene,Elene,"50.8889,3.81",50.8889,50.8889,3.81,3.81,België,Etterbeek,België,,,,,Q117229438,,
Q125859018,Elvina Marie Verbeke,Person,,Kortrijk,Kortrijk,"50.8275,3.265833333333333",50.8275,50.8275,3.265833333333333,3.265833333333333,België,Kortrijk,België,,,,,Q125859018,,
Q122791049,Emfrentiana De Backere,Person,,Heusden,Heusden,"51.69975,5.16598",51.69975,51.69975,5.16598,5.16598,Nederland,Gent,België,,,,,Q122791049,,
Q115815852,Emiel De Brabandere,Person,,Tielt,Arrondissement of Tielt,"51,3.3",51,51,3.3,3.3,België,Berck,Frankrijk,,,,,Q115815852,,
Q116679969,Emiel De Visschere,Person,,Ruddervoorde,Ruddervoorde,"51.0956,3.2056",51.0956,51.0956,3.2056,3.2056,België,Brugge,België,,,,,Q116679969,,
Q13576607,Emiel Demonie,Person,,Roeselare,Arrondissement of Roeselare,"50.946667,3.123333",50.946667,50.946667,3.123333,3.123333,België,Brugge,België,,,,,Q13576607,,
Q2183646,Emiel Lauwers,Person,http://commons.wikimedia.org/wiki/Special:FilePath/Emiel%20Lauwers%20-%20Kortrijk%20-%20Belgi%C3%AB.jpg,Ingelmunster,Ingelmunster,"50.9208,3.2533",50.9208,50.9208,3.2533,3.2533,België,Kortrijk,België,,,,,Q2183646,,
Q115835605,Emiel Minne,Person,,Tielt,Arrondissement of Tielt,"51,3.3",51,51,3.3,3.3,België,Brugge,België,,,,,Q115835605,,
Q122915335,Emiel Van Den Berghe,Person,,,,,,,,,,,,,,,,Q122915335,,
Q115811038,Emile Dambre,Person,,Vlamertinge,Ypres,"50.850833333333334,2.885",50.850833333333334,50.850833333333334,2.885,2.885,België,Oostkamp,België,,,,,Q115811038,,
Q120900509,Emile Florimond Herman Van Biervliet,Person,,Brugge,Bruges,"51.208888888888886,3.2241666666666666",51.208888888888886,51.208888888888886,3.2241666666666666,3.2241666666666666,België,Mortsel,België,,,,,Q120900509,,
Q120644522,Emile Henri Adolphe Descamps,Person,,Wormhout,Wormhout,"50.882777777778,2.4677777777778",50.882777777778,50.882777777778,2.4677777777778,2.4677777777778,Frankrijk,Groot-Sinten,Frankrijk,,,,,Q120644522,,
Q115825992,Emile Tillieux,Person,,Kortrijk,Kortrijk,"50.8275,3.265833333333333",50.8275,50.8275,3.265833333333333,3.265833333333333,België,Ieper,België,,,,,Q115825992,,
Q115808465,Emile Vandale,Person,,Kortrijk,Kortrijk,"50.8275,3.265833333333333",50.8275,50.8275,3.265833333333333,3.265833333333333,België,Nottingham,Verenigd Koninkrijk,,,,,Q115808465,,
Q122831483,Emilie Marie Justine Demonie,Person,,Roeselare,Arrondissement of Roeselare,"50.946667,3.123333",50.946667,50.946667,3.123333,3.123333,België,Roeselare,België,,,,,Q122831483,,
Q113486838,Emilie van Outryve d'Ydewalle,Person,,Brugge,Bruges,"51.208888888888886,3.2241666666666666",51.208888888888886,51.208888888888886,3.2241666666666666,3.2241666666666666,België,Marke,België,,,,,Q113486838,,
Q117227040,Emily Jane Martin,Person,,Londen,London,"51.507222222222,-0.1275",51.507222222222,51.507222222222,-0.1275,-0.1275,Verenigd Koninkrijk,Londen,Verenigd Koninkrijk,,,,,Q117227040,,
Q117226377,Emma Crombet,Person,,Kortrijk,Kortrijk,"50.8275,3.265833333333333",50.8275,50.8275,3.265833333333333,3.265833333333333,België,Kortrijk,België,,,,,Q117226377,,
Q1334711,Emmanuel Hiel,Person,http://commons.wikimedia.org/wiki/Special:FilePath/Hiel%2C%20Emmanuel%20%281834-1899%29%3B%20dichter%20en%20schrijver%2C%20Nauwens%2C%20Joseph%2C%20Felixarchief%2C%2012%2012840.jpg,Sint-Gillis-bij-Dendermonde,Sint-Gillis-bij-Dendermonde,"51.0194,4.1111",51.0194,51.0194,4.1111,4.1111,België,Schaarbeek,België,,,,,Q1334711,,
Q1334711,Emmanuel Hiel,Person,http://commons.wikimedia.org/wiki/Special:FilePath/Hiel%2C%20Emmanuel%20%281834-1899%29%3B%20dichter%20en%20schrijver%2C%20Nauwens%2C%20Joseph%2C%20Felixarchief%2C%2012%2012840.jpg,Dendermonde,Dendermonde,"51.03123,4.0981",51.03123,51.03123,4.0981,4.0981,België,Schaarbeek,België,,,,,Q1334711,,
Q120855316,Ernest Albin Smith,Person,,Londen,London,"51.507222222222,-0.1275",51.507222222222,51.507222222222,-0.1275,-0.1275,Verenigd Koninkrijk,Brisbane,Australië,,,,,Q120855316,,
Q125282135,Ernest Edouard Marie Eeman,Person,,,,,,,,,,,,,,,,Q125282135,,
Q3080591,Ernest Marie Joseph Martin Michel van Caloen,Person,,Loppem,Loppem,"51.1542,3.1903",51.1542,51.1542,3.1903,3.1903,België,Brugge,België,,,,,Q3080591,,
Q62080181,Ernest Rembry,Person,,Moorsele,Moorsele,"50.8403,3.1636",50.8403,50.8403,3.1636,3.1636,België,Brugge,België,,,,,Q62080181,,
Q125275288,Ernestine De Seille,Person,,Aalter,Aalter,"51.083333333333,3.45",51.083333333333,51.083333333333,3.45,3.45,België,Brugge,België,,,,,Q125275288,,
Q125352256,Ernestine Francisca Marie Van Langermeersch,Person,,Brugge,Bruges,"51.208888888888886,3.2241666666666666",51.208888888888886,51.208888888888886,3.2241666666666666,3.2241666666666666,België,,,,,,,Q125352256,,
Q132321245,Esther Martine Eugénie Clémence Marie Ghislaine De Zitter,Person,,Brugge,Bruges,"51.208888888888886,3.2241666666666666",51.208888888888886,51.208888888888886,3.2241666666666666,3.2241666666666666,België,Roeselare,België,,,,,Q132321245,,
Q42196616,Eugeen de Lepeleer,Person,,Sint-Maria-Oudenhove,Sint-Maria-Oudenhove,"50.8333,3.7961",50.8333,50.8333,3.7961,3.7961,België,Gent,België,,,,,Q42196616,,
Q2546317,Eugeen van Oye,Person,http://commons.wikimedia.org/wiki/Special:FilePath/Eugeen%20van%20Oye%20-%20Statue%20in%20Gistel.jpg,Torhout,Torhout,"51.06612448136476,3.10136976770668",51.06612448136476,51.06612448136476,3.10136976770668,3.10136976770668,België,Gistel,België,,,,,Q2546317,,
Q57197744,Eugeen-Karel Van Steenkiste,Person,,Brugge,Bruges,"51.208888888888886,3.2241666666666666",51.208888888888886,51.208888888888886,3.2241666666666666,3.2241666666666666,België,Brugge,België,,,,,Q57197744,,
Q123414143,Eugenie Marie Delbaere,Person,,Ardooie,Ardooie,"50.966666666667,3.1833333333333",50.966666666667,50.966666666667,3.1833333333333,3.1833333333333,België,,,,,,,Q123414143,,
Q120556695,Eugène Charles Jean Valentin de Peñaranda,Person,,Brussel,City of Brussels,"50.846666666666664,4.351666666666667",50.846666666666664,50.846666666666664,4.351666666666667,4.351666666666667,België,Brugge,België,,,,,Q120556695,,
Q56036023,Eugène Cortyl,Person,,,,,,,,,,Hazebroek,Frankrijk,,,,,Q56036023,,
Q123052123,Eugénie Barbe Peel,Person,,Kortrijk,Kortrijk,"50.8275,3.265833333333333",50.8275,50.8275,3.265833333333333,3.265833333333333,België,Kortrijk,België,,,,,Q123052123,,
Q116621789,Eugénie De Neve,Person,,Heist,Heist,"53.65,9.65",53.65,53.65,9.65,9.65,België,Heist,België,,,,,Q116621789,,
Q115814591,Evarist De Boeck,Person,,Hofstade,Hofstade,"50.96,4.0344",50.96,50.96,4.0344,4.0344,België,Eindhout,België,,,,,Q115814591,,
Q115855636,Febronie Lemettre,Person,,Lendelede,Lendelede,"50.8858,3.2372",50.8858,50.8858,3.2372,3.2372,België,Brugge,België,,,,,Q115855636,,
Q2770967,Felix Achille de Bethune,Person,,Kortrijk,Kortrijk,"50.8275,3.265833333333333",50.8275,50.8275,3.265833333333333,3.265833333333333,België,Brugge,België,,,,,Q2770967,,
Q120191174,Felix De Nolf,Person,,,,,,,,,,,,,,,,Q120191174,,
Q115981938,Felix Degrendel,Person,,Beveren,Beveren,"51.2,4.25",51.2,51.2,4.25,4.25,België,Beveren,België,,,,,Q115981938,,
Q115838563,Felix Verstraete,Person,,Egem,Pittem,"50.983333333333,3.2666666666667",50.983333333333,50.983333333333,3.2666666666667,3.2666666666667,België,Sint-Kruis,België,,,,,Q115838563,,
Q2684959,Ferdinand Van de Putte,Person,http://commons.wikimedia.org/wiki/Special:FilePath/Ferdinand%20Van%20de%20Putte.jpg,Rumbeke,Rumbeke,"50.9333,3.1539",50.9333,50.9333,3.1539,3.1539,België,Kortrijk,België,,,,,Q2684959,,
Q2065109,Ferdinand Vanderhaeghen,Person,http://commons.wikimedia.org/wiki/Special:FilePath/Ferdinand%20Vander%20Haeghen.jpg,Gent,Ghent,"51.05361111111111,3.725277777777778",51.05361111111111,51.05361111111111,3.725277777777778,3.725277777777778,België,Gent,België,,,,,Q2065109,,
Q125365215,Flora Maria Mastraeten,Person,,Leuven,Arrondissement of Leuven,"50.9,4.8",50.9,50.9,4.8,4.8,België,Kortrijk,België,,,,,Q125365215,,
Q116660566,Florence Gezelle,Person,http://commons.wikimedia.org/wiki/Special:FilePath/Foto%20van%20Florence%20Gezelle.jpg,Brugge,Bruges,"51.208888888888886,3.2241666666666666",51.208888888888886,51.208888888888886,3.2241666666666666,3.2241666666666666,België,Heule,België,,,,,Q116660566,,
Q115981931,Florimond Vanden Bulcke,Person,,Sint-Denijs,Sint-Denijs,"50.7517,3.3664",50.7517,50.7517,3.3664,3.3664,België,Kuurne,België,,,,,Q115981931,,
Q116509612,Francesca Christophers,Person,,St Pancras,London Borough of Camden,"51.54277777777778,-0.15944444444444444",51.54277777777778,51.54277777777778,-0.15944444444444444,-0.15944444444444444,Verenigd Koninkrijk,Elham,Verenigd Koninkrijk,,,,,Q116509612,,
Q119039938,Francis Lawrence Weale,Person,,Islington,London Borough of Islington,"51.541666666667,-0.10222222222222",51.541666666667,51.541666666667,-0.10222222222222,-0.10222222222222,Verenigd Koninkrijk,Reading,Verenigd Koninkrijk,,,,,Q119039938,,
Q122964092,Franciscus Augustus Van Wtberghe,Person,,Poperinge,Poperinge,"50.8547,2.7256",50.8547,50.8547,2.7256,2.7256,België,Poperinge,België,,,,,Q122964092,,
Q115811922,Franciscus Benoot,Person,,Meulebeke,Meulebeke,"50.9497,3.2869",50.9497,50.9497,3.2869,3.2869,België,Kortrijk,België,,,,,Q115811922,,
Q115982485,Franciscus Boudeweel,Person,,Sint-Lievens-Houtem,Sint-Lievens-Houtem,"50.916666666667,3.8666666666667",50.916666666667,50.916666666667,3.8666666666667,3.8666666666667,België,Kortrijk,België,,,,,Q115982485,,
Q115831995,Franciscus-Xaverius Ciamberlani,Person,,Münster,Münster,"51.9625,7.6255555555556",51.9625,51.9625,7.6255555555556,7.6255555555556,Duitsland,Beveren,België,,,,,Q115831995,,
Q115982545,Franciscus-Xaverius Mervillie,Person,,Wontergem,Wontergem,"50.9794,3.4444",50.9794,50.9794,3.4444,3.4444,België,Torhout,België,,,,,Q115982545,,
Q2361397,Frans De Cort,Person,,Antwerpen,Province of Antwerp,"51.216666666667,4.4166666666667",51.216666666667,51.216666666667,4.4166666666667,4.4166666666667,België,Elsene,België,,,,,Q2361397,,
Q15461013,Frans De Potter,Person,http://commons.wikimedia.org/wiki/Special:FilePath/De%20Potter%20Frans%20070512.png,Gent,Ghent,"51.05361111111111,3.725277777777778",51.05361111111111,51.05361111111111,3.725277777777778,3.725277777777778,België,Gent,België,,,,,Q15461013,,
Q15956,Frans Schollaert,Person,http://commons.wikimedia.org/wiki/Special:FilePath/Frans%20Schollaert.jpg,Wilsele,Wilsele,"50.9,4.7",50.9,50.9,4.7,4.7,België,Sainte-Adresse,Frankrijk,,,,,Q15956,,
Q121078001,Frans Verbeke,Person,,Sint-Eloois-Vijve,Sint-Eloois-Vijve,"50.9056,3.4042",50.9056,50.9056,3.4042,3.4042,België,Vancouver,Canada,,,,,Q121078001,,
Q120913841,François Auguste Van Costenoble,Person,,Belle,Belley,"45.759166666667,5.6880555555556",45.759166666667,45.759166666667,5.6880555555556,5.6880555555556,Frankrijk,Vleteren,Frankrijk,,,,,Q120913841,,
Q120504176,François De Brouwer,Person,,Brugge,Bruges,"51.208888888888886,3.2241666666666666",51.208888888888886,51.208888888888886,3.2241666666666666,3.2241666666666666,België,Maredsous,België,,,,,Q120504176,,
Q136735429,François Joseph Brondel,Person,,Brugge,Bruges,"51.208888888888886,3.2241666666666666",51.208888888888886,51.208888888888886,3.2241666666666666,3.2241666666666666,België,Brugge,België,,,,,Q136735429,,
Q1894475,François Van den Abeele,Person,,Brugge,Bruges,"51.208888888888886,3.2241666666666666",51.208888888888886,51.208888888888886,3.2241666666666666,3.2241666666666666,België,Brugge,België,,,,,Q1894475,,
Q1286149,Frederick William Faber,Person,http://commons.wikimedia.org/wiki/Special:FilePath/Frederick%20William%20Faber.jpg,Calverley,Calverley Lake,"58.1338888888889,-98.3338888888889",58.1338888888889,58.1338888888889,-98.3338888888889,-98.3338888888889,Verenigd Koninkrijk,Londen,Verenigd Koninkrijk,,,,,Q1286149,,
Q42596,Frédéric Mistral,Person,http://commons.wikimedia.org/wiki/Special:FilePath/Frederic%20Mistral%20portrait%20photo.jpg,Maillane,Maillane,"43.832777777778,4.7819444444444",43.832777777778,43.832777777778,4.7819444444444,4.7819444444444,Frankrijk,Maillane,Frankrijk,,,,,Q42596,,
Q122754021,Félicie Marie Heldenbergh,Person,,Kortrijk,Kortrijk,"50.8275,3.265833333333333",50.8275,50.8275,3.265833333333333,3.265833333333333,België,Kortrijk,België,,,,,Q122754021,,
Q125351679,Félix Pierre Victor Raikem,Person,,Luik,Province of Liege,"50.633333333333,5.5666666666667",50.633333333333,50.633333333333,5.5666666666667,5.5666666666667,België,Parijs,Frankrijk,,,,,Q125351679,,
Q122971209,George Parker,Person,,,,,,,,,,Oxford,Verenigd Koninkrijk,,,,,Q122971209,,
Q119796023,Georges Vincent Eugène Louis Beyaert,Person,,Kortrijk,Kortrijk,"50.8275,3.265833333333333",50.8275,50.8275,3.265833333333333,3.265833333333333,België,Kortrijk,België,,,,,Q119796023,,
Q118725738,Georges William Gadd,Person,,Salford,Salford,"53.482777777778,-2.2930555555556",53.482777777778,53.482777777778,-2.2930555555556,-2.2930555555556,Verenigd Koninkrijk,Zanesville,Verenigde Staten,,,,,Q118725738,,
Q118189985,Georgina Coxon,Person,,Killarney,Killarney,"49.1833,-99.6628",49.1833,49.1833,-99.6628,-99.6628,Ierland,Brugge,België,,,,,Q118189985,,
Q2606766,Gerard van Caloen,Person,http://commons.wikimedia.org/wiki/Special:FilePath/G%C3%A9rard%20van%20Caloen%20%28detail%29.jpg,Loppem,Loppem,"51.1542,3.1903",51.1542,51.1542,3.1903,3.1903,België,Antibes,Frankrijk,,,,,Q2606766,,
Q2319173,Gerrit Jacob Boekenoogen,Person,http://commons.wikimedia.org/wiki/Special:FilePath/BoekenoogenGJ.jpg,Wormerveer,Wormerveer,"52.483333333333,4.7833333333333",52.483333333333,52.483333333333,4.7833333333333,4.7833333333333,Nederland,Leiden,Nederland,,,,,Q2319173,,
Q116460145,Gerrit Pieter Roos,Person,,Aardenburg,Aardenburg,"51.274444444444,3.4452777777778",51.274444444444,51.274444444444,3.4452777777778,3.4452777777778,Nederland,Croix,Frankrijk,,,,,Q116460145,,
Q122842009,Grace Sherrington,Person,,Preston,Preston,"53.759444444444,-2.6980555555556",53.759444444444,53.759444444444,-2.6980555555556,-2.6980555555556,Verenigd Koninkrijk,,,,,,,Q122842009,,
Q115844439,Gustaaf Carton,Person,,Wingene,Wingene,"51.05,3.2666666666667",51.05,51.05,3.2666666666667,3.2666666666667,België,Wingene,België,,,,,Q115844439,,
Q115813555,Gustaaf Janssens,Person,,Mechelen,Arrondissement of Mechelen,"51.05,4.5",51.05,51.05,4.5,4.5,België,Brussel,België,,,,,Q115813555,,
Q115835763,Gustaaf Van de Putte,Person,,Izegem,Izegem,"50.9172,3.215",50.9172,50.9172,3.215,3.215,België,Ardooie,België,,,,,Q115835763,,
Q122872984,Gustaaf Verheust-Dekeyser,Person,,Izegem,Izegem,"50.9172,3.215",50.9172,50.9172,3.215,3.215,België,Rochester,Verenigde Staten,,,,,Q122872984,,
Q2190493,Gustaaf Verriest,Person,http://commons.wikimedia.org/wiki/Special:FilePath/Gustaaf%20Louise%20Oda%20Hugo%20Verriest%20in%201861.jpg,Deerlijk,Deerlijk,"50.8533,3.3533",50.8533,50.8533,3.3533,3.3533,België,Saint-Cloud,Frankrijk,,,,,Q2190493,,
Q115837646,Gustaf François Marie Van Mullem,Person,,Sijsele,Sijsele,"51.2022,3.3236",51.2022,51.2022,3.3236,3.3236,België,Assebroek,België,,,,,Q115837646,,
Q115838249,Gustaf Vandendries,Person,,Veurne,Arrondissement of Veurne,"51.07,2.66",51.07,51.07,2.66,2.66,België,Outrijve,België,,,,,Q115838249,,
Q115818541,Gustave Delescluze,Person,,Brugge,Bruges,"51.208888888888886,3.2241666666666666",51.208888888888886,51.208888888888886,3.2241666666666666,3.2241666666666666,België,Kortrijk,België,,,,,Q115818541,,
Q2496044,Gustave Henri Flamen,Person,,Brussel,City of Brussels,"50.846666666666664,4.351666666666667",50.846666666666664,50.846666666666664,4.351666666666667,4.351666666666667,België,Brugge,België,,,,,Q2496044,,
Q2191260,Gustave Waffelaert,Person,http://commons.wikimedia.org/wiki/Special:FilePath/Gustaaf%20Jozef%20Waffelaert%20-%2022ste%20bisschop%20van%20Brugge%20-%20Belgi%C3%AB.jpg,Rollegem,Rollegem,"50.7686,3.2622",50.7686,50.7686,3.2622,3.2622,België,Brugge,België,,,,,Q2191260,,
Q122971559,Gustavus Henricus Jochem,Person,,Tielt,Arrondissement of Tielt,"51,3.3",51,51,3.3,3.3,België,Geluwe,België,,,,,Q122971559,,
Q125541827,Heinrich Hubert Schmitz,Person,,Bonn,Bonn,"50.735277777777775,7.102222222222222",50.735277777777775,50.735277777777775,7.102222222222222,7.102222222222222,Duitsland,,,,,,,Q125541827,,
Q116508871,Helena Amelia Walton,Person,,Londen,London,"51.507222222222,-0.1275",51.507222222222,51.507222222222,-0.1275,-0.1275,Verenigd Koninkrijk,Engeland,Verenigd Koninkrijk,,,,,Q116508871,,
Q125360612,Heloise Geneviève Gruselle,Person,,,,,,,,,,,,,,,,Q125360612,,
Q119794240,Hendrik Berghman,Person,,Ieper,Arrondissement of Ypres,"50.85,2.9166666666667",50.85,50.85,2.9166666666667,2.9166666666667,België,Dundalk,Ierland,,,,,Q119794240,,
Q87648661,Hendrik Brinck,Person,,Brussel,City of Brussels,"50.846666666666664,4.351666666666667",50.846666666666664,50.846666666666664,4.351666666666667,4.351666666666667,België,Kortrijk,België,,,,,Q87648661,,
Q119860278,Hendrik Claes,Person,,Antwerpen,Province of Antwerp,"51.216666666667,4.4166666666667",51.216666666667,51.216666666667,4.4166666666667,4.4166666666667,België,Antwerpen,België,,,,,Q119860278,,
Q378133,Hendrik Conscience,Person,http://commons.wikimedia.org/wiki/Special:FilePath/Hendrik%20Conscience.jpg,Antwerpen,Province of Antwerp,"51.216666666667,4.4166666666667",51.216666666667,51.216666666667,4.4166666666667,4.4166666666667,België,Elsene,België,,,,,Q378133,,
Q136760074,Hendrik Depoorter,Person,,Emelgem,Emelgem,"50.9233,3.2297",50.9233,50.9233,3.2297,3.2297,België,Sint-Kruis,België,,,,,Q136760074,,
Q120377148,Hendrik Dobbelaere,Person,,Lo,Province of Lodi,"45.316666666667,9.5",45.316666666667,45.316666666667,9.5,9.5,België,Lo,België,,,,,Q120377148,,
Q113627806,Hendrik Karel Van Doorne,Person,,Poeke,Poeke,"51.0411,3.4436",51.0411,51.0411,3.4436,3.4436,België,Poeke,België,,,,,Q113627806,,
Q571426,Hendrik Kern,Person,http://commons.wikimedia.org/wiki/Special:FilePath/Johan%20Hendrik%20Caspar%20Kern.jpg,Purworejo,Purworejo,"-7.7166666666667,110.01666666667",-7.7166666666667,-7.7166666666667,110.01666666667,110.01666666667,Indonesië,Utrecht,Nederland,,,,,Q571426,,
Q115815004,Hendrik Mortier,Person,,Ieper,Arrondissement of Ypres,"50.85,2.9166666666667",50.85,50.85,2.9166666666667,2.9166666666667,België,Kortrijk,België,,,,,Q115815004,,
Q114081509,Hendrik Persyn,Person,,Wingene,Wingene,"51.05,3.2666666666667",51.05,51.05,3.2666666666667,3.2666666666667,België,Wingene,België,,,,,Q114081509,,
Q11029222,Hendrik Pickery,Person,http://commons.wikimedia.org/wiki/Special:FilePath/Hendrik%20Pickery%20gedenkteken%20R03.jpg,Brugge,Bruges,"51.208888888888886,3.2241666666666666",51.208888888888886,51.208888888888886,3.2241666666666666,3.2241666666666666,België,Brugge,België,,,,,Q11029222,,
Q115840228,Hendrik Prévost,Person,,Sint-Winoksbergen,Bergues,"50.968611111111,2.4341666666667",50.968611111111,50.968611111111,2.4341666666667,2.4341666666667,Frankrijk,Kortrijk,België,,,,,Q115840228,,
Q94896539,Hendrik Q. Janssen,Person,,Sint Anna ter Muiden,Sint Anna ter Muiden,"51.314444444444,3.3641666666667",51.314444444444,51.314444444444,3.3641666666667,3.3641666666667,Nederland,Goes,Nederland,,,,,Q94896539,,
Q3431564,Hendrik Sermon,Person,,Sint-Pieters-Leeuw,Sint-Pieters-Leeuw,"50.783333333333,4.25",50.783333333333,50.783333333333,4.25,4.25,België,Borgerhout,België,,,,,Q3431564,,
Q115840173,Hendrik Van Witberghe,Person,,Izegem,Izegem,"50.9172,3.215",50.9172,50.9172,3.215,3.215,België,Gent,België,,,,,Q115840173,,
Q115839965,Hendrik Vandendriessche,Person,,Otegem,Otegem,"50.8072,3.4194",50.8072,50.8072,3.4194,3.4194,België,Aalbeke,België,,,,,Q115839965,,
Q123416074,Henri Delbaere,Person,,Ingooigem,Ingooigem,"50.8192,3.4319",50.8192,50.8192,3.4319,3.4319,België,Danville,Verenigde Staten,,,,,Q123416074,,
Q110039252,Henri Delbar,Person,,Moeskroen,Arrondissement of Mouscron,"50.75,3.2",50.75,50.75,3.2,3.2,België,Menen,België,,,,,Q110039252,,
Q123717111,Henri Dufour,Person,,Pittem,Pittem,"50.983333333333,3.2666666666667",50.983333333333,50.983333333333,3.2666666666667,3.2666666666667,België,Brugge,België,,,,,Q123717111,,
Q115834868,Henri Louis Joseph Messiaen,Person,,Ten Brielen,Ten Brielen,,,,,,België,Westkerke,België,,,,,Q115834868,,
Q3346571,Henri Nolf,Person,,,,,,,,,,,,,,,,Q3346571,,
Q3032807,Henri Rommel,Person,,Rumbeke,Rumbeke,"50.9333,3.1539",50.9333,50.9333,3.1539,3.1539,België,Brugge,België,,,,,Q3032807,,
Q125559890,Henri Van De Wattyne,Person,,Biervliet,Biervliet,"51.328055555556,3.6855555555556",51.328055555556,51.328055555556,3.6855555555556,3.6855555555556,Nederland,Gent,België,,,,,Q125559890,,
Q115827696,Henricus Blancke,Person,,Wontergem,Wontergem,"50.9794,3.4444",50.9794,50.9794,3.4444,3.4444,België,Gent,België,,,,,Q115827696,,
Q115979994,Henricus De Badts,Person,,Poperinge,Poperinge,"50.8547,2.7256",50.8547,50.8547,2.7256,2.7256,België,Dudzele,België,,,,,Q115979994,,
Q125246358,Henricus De Vriese,Person,,Wingene,Wingene,"51.05,3.2666666666667",51.05,51.05,3.2666666666667,3.2666666666667,België,Wingene,België,,,,,Q125246358,,
Q120199426,Henry Edwin Harford,Person,,Manchester,Manchester,"53.466666666667,-2.2333333333333",53.466666666667,53.466666666667,-2.2333333333333,-2.2333333333333,Verenigd Koninkrijk,Londen,Verenigd Koninkrijk,,,,,Q120199426,,
Q1978131,Hilaris Allaeys,Person,,Woesten,Woesten,"50.9003,2.79",50.9003,50.9003,2.79,2.79,België,Antwerpen,België,,,,,Q1978131,,
Q28973684,Hippoliet Haerynck,Person,,Keiem,Keiem,"51.0819,2.8844",51.0819,51.0819,2.8844,2.8844,België,Vorst,België,,,,,Q28973684,,
Q119625198,Hippoliet Verhulst,Person,,,,,,,,,,,,,,,,Q119625198,,
Q115982426,Honoratus Van Wezemael,Person,,Sinaai,Sinaai,"51.1592,4.0442",51.1592,51.1592,4.0442,4.0442,België,Gent,België,,,,,Q115982426,,
Q115821479,Honoré Cardoen,Person,,Wervik,Wervik,"50.7797,3.04",50.7797,50.7797,3.04,3.04,België,Spiere,België,,,,,Q115821479,,
Q118732552,Hortense Delbaere,Person,,Aalbeke,Aalbeke,"50.7781,3.2294",50.7781,50.7781,3.2294,3.2294,België,Kortrijk,België,,,,,Q118732552,,
Q117244596,Hortense Gezelle,Person,http://commons.wikimedia.org/wiki/Special:FilePath/Foto%20van%20Hortense%20Gezelle.jpg,Brugge,Bruges,"51.208888888888886,3.2241666666666666",51.208888888888886,51.208888888888886,3.2241666666666666,3.2241666666666666,België,Loppem,België,,,,,Q117244596,,
Q981444,Hugo Verriest,Person,http://commons.wikimedia.org/wiki/Special:FilePath/HugoVerriest.jpg,Deerlijk,Deerlijk,"50.8533,3.3533",50.8533,50.8533,3.3533,3.3533,België,Ingooigem,België,,,,,Q981444,,
Q117264774,Hélène Janssens,Person,,Sint-Niklaas,Sint-Niklaas,"51.164444444444,4.1391666666667",51.164444444444,51.164444444444,4.1391666666667,4.1391666666667,België,Brugge,België,,,,,Q117264774,,
Q5983066,Ian Theodor Beelen,Person,,Amsterdam,Amsterdam,"52.36666666666667,4.883333333333333",52.36666666666667,52.36666666666667,4.883333333333333,4.883333333333333,Nederland,Leuven,België,,,,,Q5983066,,
Q55672664,Ignace de Coussemaker,Person,,Belle,Belley,"45.759166666667,5.6880555555556",45.759166666667,45.759166666667,5.6880555555556,5.6880555555556,Frankrijk,Belle,Frankrijk,,,,,Q55672664,,
Q129069726,Isabelle Marie de Proli,Person,,Essen,Hesse,"50.60802777777778,9.028472222222222",50.60802777777778,50.60802777777778,9.028472222222222,9.028472222222222,België,Kortrijk,België,,,,,Q129069726,,
Q115818849,Isidoor Hemeryck,Person,,Beveren,Beveren,"51.2,4.25",51.2,51.2,4.25,4.25,België,Leuven,België,,,,,Q115818849,,
Q2627945,Isidoor Teirlinck,Person,,Zegelsem,Zegelsem,"50.82,3.7175",50.82,50.82,3.7175,3.7175,België,Vorst,België,,,,,Q2627945,,
Q115827506,Isidoor Van Cleemput,Person,,Waasmunster,Waasmunster,"51.10977265182779,4.08435728685106",51.10977265182779,51.10977265182779,4.08435728685106,4.08435728685106,België,Meigem,België,,,,,Q115827506,,
Q115980044,Isidoor Verdoodt,Person,,Opwijk,Opwijk,"50.966666666667,4.1833333333333",50.966666666667,50.966666666667,4.1833333333333,4.1833333333333,België,Mortsel,België,,,,,Q115980044,,
Q115982548,Isidorus Fraeys,Person,,Roeselare,Arrondissement of Roeselare,"50.946667,3.123333",50.946667,50.946667,3.123333,3.123333,België,Aarsele,België,,,,,Q115982548,,
Q20604626,J.H.J. van Wageningen thoe Dekema,Person,http://commons.wikimedia.org/wiki/Special:FilePath/Jan%20van%20Wageningen%20thoe%20Dekema.jpg,Leeuwarden,Leeuwarden,"53.2,5.7833333333333",53.2,53.2,5.7833333333333,5.7833333333333,Nederland,Jelsum,Nederland,,,,,Q20604626,,
Q110039260,Jacob Lenaerts,Person,,Zonhoven,Zonhoven,"50.985277777778,5.3647222222222",50.985277777778,50.985277777778,5.3647222222222,5.3647222222222,België,Landen,België,,,,,Q110039260,,
Q961180,Jacob Verdam,Person,http://commons.wikimedia.org/wiki/Special:FilePath/Portret%20van%20Jacob%20Verdam%2C%20hoogleraar%20Nederlandse%20Taal%20te%20Leiden%20Icones%20298.tiff,Amsterdam,Amsterdam,"52.36666666666667,4.883333333333333",52.36666666666667,52.36666666666667,4.883333333333333,4.883333333333333,Nederland,Leiden,Nederland,,,,,Q961180,,
Q43129301,Jacobus Augustinus de Rijk,Person,,Hilversum,Hilversum,"52.23,5.18",52.23,52.23,5.18,5.18,Nederland,,,,,,,Q43129301,,
Q115839946,Jacobus Vanden Berghe,Person,,Heule,Heule,"50.8428,3.2353",50.8428,50.8428,3.2353,3.2353,België,Heule,België,,,,,Q115839946,,
Q45029767,Jakob Muyldermans,Person,,Oksdonk,Oksdonk,"51.0075,4.363889",51.0075,51.0075,4.363889,4.363889,België,Mechelen,België,,,,,Q45029767,,
Q2424814,Jan Baptist David,Person,http://commons.wikimedia.org/wiki/Special:FilePath/Jan%20Baptist%20David%20-%20lithograph%20by%20Louis%20Tuerlinckx.jpg,Lier,Lier,"51.13111111111111,4.5697222222222225",51.13111111111111,51.13111111111111,4.5697222222222225,4.5697222222222225,België,Leuven,België,,,,,Q2424814,,
Q42853596,Jan Baptist Vervliet,Person,,,,,,,,,,,,,,,,Q42853596,,
Q1920135,Jan Bols,Person,http://commons.wikimedia.org/wiki/Special:FilePath/Jan%20Bols%2C%20borststuk%20door%20E.%20Fabronius.tif,Werchter,Werchter,"50.9703,4.6936",50.9703,50.9703,4.6936,4.6936,België,Aarschot,België,,,,,Q1920135,,
Q37766220,Jan Broeckaert,Person,,Wetteren,Wetteren,"51,3.8833333333333",51,51,3.8833333333333,3.8833333333333,België,Dendermonde,België,,,,,Q37766220,,
Q110039159,Jan Craeynest,Person,,Oostrozebeke,Oostrozebeke,"50.916666666667,3.3333333333333",50.916666666667,50.916666666667,3.3333333333333,3.3333333333333,België,Sint-Michiels,België,,,,,Q110039159,,
Q120176244,Jan De Neve,Person,,Heist,Heist,"53.65,9.65",53.65,53.65,9.65,9.65,België,Glasgow,Verenigd Koninkrijk,,,,,Q120176244,,
Q136805839,Jan Ferdinand Tuerlinckx,Person,,Glabbeek,Glabais,"50.6303,4.4531",50.6303,50.6303,4.4531,4.4531,België,Aarschot,België,,,,,Q136805839,,
Q2266893,Jan Ferguut,Person,,Sint-Amands,Sint-Amands,"51.0525,4.205",51.0525,51.0525,4.205,4.205,België,Schaarbeek,België,,,,,Q2266893,,
Q120493880,Jan Frans De Block,Person,,Puurs,Puurs,"51.0761,4.2803",51.0761,51.0761,4.2803,4.2803,België,Puurs,België,,,,,Q120493880,,
Q120727152,Jan Hendrik Loosveldt,Person,,Tielt,Arrondissement of Tielt,"51,3.3",51,51,3.3,3.3,België,Tielt,België,,,,,Q120727152,,
Q329468,Jan Nolet de Brauwere van Steeland,Person,http://commons.wikimedia.org/wiki/Special:FilePath/Portret%20van%20Jan%20Nolet%20de%20Brauwere%20van%20Steeland%2C%20RP-P-1906-1206.jpg,Rotterdam,Rotterdam,"51.92,4.48",51.92,51.92,4.48,4.48,Nederland,Vilvoorde,België,,,,,Q329468,,
Q975292,Jan Van Beers,Person,http://commons.wikimedia.org/wiki/Special:FilePath/Jan%20Van%20Beers.jpg,Antwerpen,Province of Antwerp,"51.216666666667,4.4166666666667",51.216666666667,51.216666666667,4.4166666666667,4.4166666666667,België,Antwerpen,België,,,,,Q975292,,
Q23895006,Jan Willem Brouwers,Person,http://commons.wikimedia.org/wiki/Special:FilePath/Jan%20Willem%20Brouwers%20%281831-1893%29%2C%20gravure%20J.%20Walter%20%28coll.%20Catharijne%20Convent%29.jpg,Margraten,Margraten,"50.816666666667,5.8166666666667",50.816666666667,50.816666666667,5.8166666666667,5.8166666666667,Nederland,Maastricht,Nederland,,,,,Q23895006,,
Q119011751,Jan van Damme,Person,,Kortrijk,Kortrijk,"50.8275,3.265833333333333",50.8275,50.8275,3.265833333333333,3.265833333333333,België,Brugge,België,,,,,Q119011751,,
Q3171149,Jean Casier,Person,http://commons.wikimedia.org/wiki/Special:FilePath/Portret%20van%20Jean%20Casier%201880%20barcode%20910000105033.jpg,Gent,Ghent,"51.05361111111111,3.725277777777778",51.05361111111111,51.05361111111111,3.725277777777778,3.725277777777778,België,Gent,België,,,,,Q3171149,,
Q7190386,Jean Joseph Loiseaux,Person,,Bergen,Bergen,"51.5992,6.0336",51.5992,51.5992,6.0336,6.0336,België,Brugge,België,,,,,Q7190386,,
Q113731929,Jean Scherpereel,Person,,Oostnieuwkerke,Oostnieuwkerke,"50.9403,3.0597",50.9403,50.9403,3.0597,3.0597,België,Brugge,België,,,,,Q113731929,,
Q2163210,Jean van Ruymbeke,Person,,Kortrijk,Kortrijk,"50.8275,3.265833333333333",50.8275,50.8275,3.265833333333333,3.265833333333333,België,Oedelem,België,,,,,Q2163210,,
Q3163681,Jean-Aloys Van Steenkiste,Person,,Rumbeke,Rumbeke,"50.9333,3.1539",50.9333,50.9333,3.1539,3.1539,België,Brugge,België,,,,,Q3163681,,
Q354052,Jean-Baptiste Bethune,Person,http://commons.wikimedia.org/wiki/Special:FilePath/JBBethune%20par%20Raoux.jpg,Kortrijk,Kortrijk,"50.8275,3.265833333333333",50.8275,50.8275,3.265833333333333,3.265833333333333,België,Marke,België,,,,,Q354052,,
Q3164253,Jean-Baptiste Malou,Person,http://commons.wikimedia.org/wiki/Special:FilePath/Joannes%20Baptista%20Malou%20-%20Bishop%20of%20Bruges.jpg,Ieper,Arrondissement of Ypres,"50.85,2.9166666666667",50.85,50.85,2.9166666666667,2.9166666666667,België,Brugge,België,,,,,Q3164253,,
Q2672741,Jean-Baptiste de Bethune jr.,Person,,Brugge,Bruges,"51.208888888888886,3.2241666666666666",51.208888888888886,51.208888888888886,3.2241666666666666,3.2241666666666666,België,Heestert,België,,,,,Q2672741,,
Q122854006,Jeanne Marie Emilie Colette Ghislaine de Bethune,Person,,Oostrozebeke,Oostrozebeke,"50.916666666667,3.3333333333333",50.916666666667,50.916666666667,3.3333333333333,3.3333333333333,België,Linden,België,,,,,Q122854006,,
Q125257816,Jeannette Marie Rosseeuw,Person,,Kortrijk,Kortrijk,"50.8275,3.265833333333333",50.8275,50.8275,3.265833333333333,3.265833333333333,België,Izegem,België,,,,,Q125257816,,
Q116508494,Jemima Stroud,Person,,Brentford,Brentford,"51.4861,-0.3101",51.4861,51.4861,-0.3101,-0.3101,Verenigd Koninkrijk,Devizes,Verenigd Koninkrijk,,,,,Q116508494,,
Q2181847,Jeroom Noterdaeme,Person,,Lo,Province of Lodi,"45.316666666667,9.5",45.316666666667,45.316666666667,9.5,9.5,België,Sint-Andries,België,,,,,Q2181847,,
Q115838569,Jerôme Vervaeke,Person,,Koekelare,Koekelare,"51.0906,2.9803",51.0906,51.0906,2.9803,2.9803,België,Tielt,België,,,,,Q115838569,,
Q118495679,Joannes Alberdingk,Person,,Amsterdam,Amsterdam,"52.36666666666667,4.883333333333333",52.36666666666667,52.36666666666667,4.883333333333333,4.883333333333333,Nederland,Amsterdam,Nederland,,,,,Q118495679,,
Q115980136,Joannes Catulle,Person,,Ingelmunster,Ingelmunster,"50.9208,3.2533",50.9208,50.9208,3.2533,3.2533,België,Brussel,België,,,,,Q115980136,,
Q123689724,Joannes De Neve,Person,,Evergem,Evergem,"51.1086,3.7075",51.1086,51.1086,3.7075,3.7075,België,Lier,België,,,,,Q123689724,,
Q115834873,Joannes Spillemaeckers,Person,,Boom,Boom,"51.0875,4.366666666666666",51.0875,51.0875,4.366666666666666,4.366666666666666,België,Overijse,België,,,,,Q115834873,,
Q115839975,Joannes Vandenweghe,Person,,Ledegem,Ledegem,"50.8531,3.1267",50.8531,50.8531,3.1267,3.1267,België,Houtem,België,,,,,Q115839975,,
Q3067739,Joaquim Rubió i Ors,Person,http://commons.wikimedia.org/wiki/Special:FilePath/Rubio%20i%20ors.jpg,Barcelona,Barcelona,"41.3825,2.1769444444444",41.3825,41.3825,2.1769444444444,2.1769444444444,Spanje,Barcelona,Spanje,,,,,Q3067739,,
Q3531475,Johan De Stoop,Person,,Brugge,Bruges,"51.208888888888886,3.2241666666666666",51.208888888888886,51.208888888888886,3.2241666666666666,3.2241666666666666,België,Roeselare,België,,,,,Q3531475,,
Q3166510,Johan Joseph Faict,Person,http://commons.wikimedia.org/wiki/Special:FilePath/Brugge%20-%20Bisschop%20Faict%20%281864-1894%29%20-%20Brugge%20-%20Belgi%C3%AB.jpg,Leffinge,Löffingen,"47.883888888889,8.3436111111111",47.883888888889,47.883888888889,8.3436111111111,8.3436111111111,België,Brugge,België,,,,,Q3166510,,
Q2491266,Johan Winkler,Person,http://commons.wikimedia.org/wiki/Special:FilePath/Johan%20Winkler.jpg,Leeuwarden,Leeuwarden,"53.2,5.7833333333333",53.2,53.2,5.7833333333333,5.7833333333333,Nederland,Haarlem,Nederland,,,,,Q2491266,,
Q21549953,Johannes Franck,Person,,Bendorf,Bendorf,"47.4875,7.2816666666667",47.4875,47.4875,7.2816666666667,7.2816666666667,Duitsland,Bonn,Duitsland,,,,,Q21549953,,
Q120733873,Johannes-Désiré Minnaert,Person,,Ursel,Ursel,"51.1303,3.485",51.1303,51.1303,3.485,3.485,België,Tielt,België,,,,,Q120733873,,
Q120491424,John Crawley,Person,,,,,,,,,,,,,,,,Q120491424,,
Q119007176,John Joseph Peter Ross,Person,,Brompton,Brompton,"54.362,-1.422",54.362,54.362,-1.422,-1.422,Verenigd Koninkrijk,Londen,Verenigd Koninkrijk,,,,,Q119007176,,
Q76019711,Jonathan Henry Woodward,Person,,County Cavan,County Cavan,"53.916666666667,-7.25",53.916666666667,53.916666666667,-7.25,-7.25,Ierland,Elham,Verenigd Koninkrijk,,,,,Q76019711,,
Q1978794,Joseph Alberdingk Thijm,Person,http://commons.wikimedia.org/wiki/Special:FilePath/Josephus%20Alberdingk%20Thijm%20portret%20%281864-1889%29.png,Amsterdam,Amsterdam,"52.36666666666667,4.883333333333333",52.36666666666667,52.36666666666667,4.883333333333333,4.883333333333333,Nederland,Amsterdam,Nederland,,,,,Q1978794,,
Q115820195,Joseph Axters,Person,,Brugge,Bruges,"51.208888888888886,3.2241666666666666",51.208888888888886,51.208888888888886,3.2241666666666666,3.2241666666666666,België,Gent,België,,,,,Q115820195,,
Q119701807,Joseph Cox Algar,Person,,Bristol,Bristol,"51.45361111111111,-2.5975",51.45361111111111,51.45361111111111,-2.5975,-2.5975,Verenigd Koninkrijk,Roeselare,België,,,,,Q119701807,,
Q115806424,Joseph Devos,Person,,Heule,Heule,"50.8428,3.2353",50.8428,50.8428,3.2353,3.2353,België,Ieper,België,,,,,Q115806424,,
Q115831509,Joseph Gezelle,Person,,Brugge,Bruges,"51.208888888888886,3.2241666666666666",51.208888888888886,51.208888888888886,3.2241666666666666,3.2241666666666666,België,Stene,België,,,,,Q115831509,,
Q61506427,Joseph Herreboudt,Person,,Brugge,Bruges,"51.208888888888886,3.2241666666666666",51.208888888888886,51.208888888888886,3.2241666666666666,3.2241666666666666,België,Stedelijk gebied Brussel,België,,,,,Q61506427,,
Q121002664,Joseph Karel Lodewijk Van Impe,Person,,Mere,Méré,"48.786111111111,1.8172222222222",48.786111111111,48.786111111111,1.8172222222222,1.8172222222222,België,Berlare,België,,,,,Q121002664,,
Q119041487,Joseph Louis Van Heede,Person,,Brugge,Bruges,"51.208888888888886,3.2241666666666666",51.208888888888886,51.208888888888886,3.2241666666666666,3.2241666666666666,België,,,,,,,Q119041487,,
Q1707941,Joseph Ryelandt,Person,http://commons.wikimedia.org/wiki/Special:FilePath/Joseph%20Ryelandt.jpg,Brugge,Bruges,"51.208888888888886,3.2241666666666666",51.208888888888886,51.208888888888886,3.2241666666666666,3.2241666666666666,België,Brugge,België,,,,,Q1707941,,
Q115811334,Joseph Samyn,Person,,Tielt,Arrondissement of Tielt,"51,3.3",51,51,3.3,3.3,België,Westouter,België,,,,,Q115811334,,
Q119013626,Joseph Van Damme,Person,,Brugge,Bruges,"51.208888888888886,3.2241666666666666",51.208888888888886,51.208888888888886,3.2241666666666666,3.2241666666666666,België,,,,,,,Q119013626,,
Q3185717,Joseph Van den Gheyn,Person,http://commons.wikimedia.org/wiki/Special:FilePath/Joseph%20van%20den%20Gheyn%20%281854-1913%29.jpg,Gent,Ghent,"51.05361111111111,3.725277777777778",51.05361111111111,51.05361111111111,3.725277777777778,3.725277777777778,België,Brussel,België,,,,,Q3185717,,
Q2306925,Joseph-Olivier Andries,Person,http://commons.wikimedia.org/wiki/Special:FilePath/J%20O%20Andries%201836.jpg,Ruddervoorde,Ruddervoorde,"51.0956,3.2056",51.0956,51.0956,3.2056,3.2056,België,Brugge,België,,,,,Q2306925,,
Q115809938,Josephus Charle,Person,,Aalbeke,Aalbeke,"50.7781,3.2294",50.7781,50.7781,3.2294,3.2294,België,Ieper,België,,,,,Q115809938,,
Q123055332,Jozef Bahri,Person,,,,,,,,,,,,,,,,Q123055332,,
Q55770641,Jozef Gezelle,Person,,Brugge,Bruges,"51.208888888888886,3.2241666666666666",51.208888888888886,51.208888888888886,3.2241666666666666,3.2241666666666666,België,Moen,België,,,,,Q55770641,,
Q115818649,Jozef Roggeman,Person,,Wichelen,Wichelen,"51.0042,3.9725",51.0042,51.0042,3.9725,3.9725,België,Dendermonde,België,,,,,Q115818649,,
Q115836535,Jozef Van Damme,Person,,Kortrijk,Kortrijk,"50.8275,3.265833333333333",50.8275,50.8275,3.265833333333333,3.265833333333333,België,Kinshasa,Congo-Kinshasa,,,,,Q115836535,,
Q120999228,Jozef Van Heffen,Person,,Sint-Pieters-Leeuw,Sint-Pieters-Leeuw,"50.783333333333,4.25",50.783333333333,50.783333333333,4.25,4.25,België,Brugge,België,,,,,Q120999228,,
Q122872579,Jules Alphonse Marie Ghislain Verest,Person,,Rupelmonde,Kruibeke,"51.1686,4.3092",51.1686,51.1686,4.3092,4.3092,België,Gent,België,,,,,Q122872579,,
Q120552708,Jules De Meester,Person,,Roeselare,Arrondissement of Roeselare,"50.946667,3.123333",50.946667,50.946667,3.123333,3.123333,België,Wetteren,België,,,,,Q120552708,,
Q115813874,Jules François De Lorge,Person,,Avelgem,Avelgem,"50.7753,3.4442",50.7753,50.7753,3.4442,3.4442,België,Sint-Joris,België,,,,,Q115813874,,
Q125491053,Jules Huysentruyt,Person,,Gullegem,Gullegem,"50.8422,3.2056",50.8422,50.8422,3.2056,3.2056,België,Wevelgem,België,,,,,Q125491053,,
Q115806479,Jules Joye,Person,,Pittem,Pittem,"50.983333333333,3.2666666666667",50.983333333333,50.983333333333,3.2666666666667,3.2666666666667,België,Poperinge,België,,,,,Q115806479,,
Q2677198,Jules Lagae,Person,http://commons.wikimedia.org/wiki/Special:FilePath/Jules%20Lagae%20%281862-1931%29.jpg,Roeselare,Arrondissement of Roeselare,"50.946667,3.123333",50.946667,50.946667,3.123333,3.123333,België,Brugge,België,,,,,Q2677198,,
Q17428533,Jules Lammens,Person,,Gent,Ghent,"51.05361111111111,3.725277777777778",51.05361111111111,51.05361111111111,3.725277777777778,3.725277777777778,België,Gent,België,,,,,Q17428533,,
Q115832532,Jules Perquy,Person,,Brugge,Bruges,"51.208888888888886,3.2241666666666666",51.208888888888886,51.208888888888886,3.2241666666666666,3.2241666666666666,België,Leuven,België,,,,,Q115832532,,
Q120829902,Jules Roose,Person,,Oostnieuwkerke,Oostnieuwkerke,"50.9403,3.0597",50.9403,50.9403,3.0597,3.0597,België,Oostnieuwkerke,België,,,,,Q120829902,,
Q721772,Jules Vandenpeereboom,Person,http://commons.wikimedia.org/wiki/Special:FilePath/Jules%20van%20den%20Peereboom.jpg,Kortrijk,Kortrijk,"50.8275,3.265833333333333",50.8275,50.8275,3.265833333333333,3.265833333333333,België,Anderlecht,België,,,,,Q721772,,
Q115846413,Julia Van Renterghem,Person,,Moorslede,Moorslede,"50.8906,3.0628",50.8906,50.8906,3.0628,3.0628,België,Brugge,België,,,,,Q115846413,,
Q101627274,Juliaan Claerhout,Person,,Wielsbeke,Wielsbeke,"50.9089,3.3697",50.9089,50.9089,3.3697,3.3697,België,Kaster,België,,,,,Q101627274,,
Q115821474,Juliaan Fové,Person,,Gistel,希斯特尔,"51.1561,2.9672",51.1561,51.1561,2.9672,2.9672,België,Kortrijk,België,,,,,Q115821474,,
Q125341815,Juliana Decloedt,Person,,Oedelem,Oedelem,"51.1694,3.3392",51.1694,51.1694,3.3392,3.3392,België,Kortrijk,België,,,,,Q125341815,,
Q126734623,Juliana Spriet,Person,,Wingene,Wingene,"51.05,3.2666666666667",51.05,51.05,3.2666666666667,3.2666666666667,België,Wingene,België,,,,,Q126734623,,
Q119797432,Julianus Maria Isidorus Blancke,Person,,Dadizele,Dadizele,"50.8506,3.0975",50.8506,50.8506,3.0975,3.0975,België,Dadizele,België,,,,,Q119797432,,
Q125359350,Julie Lievrouw,Person,,Wontergem,Wontergem,"50.9794,3.4444",50.9794,50.9794,3.4444,3.4444,België,Brugge,België,,,,,Q125359350,,
Q125353522,Julie Romanie Verbauwhede,Person,,Waregem,Waregem,"50.881078333333335,3.4000994444444443",50.881078333333335,50.881078333333335,3.4000994444444443,3.4000994444444443,België,Waregem,België,,,,,Q125353522,,
Q120729903,Julien Maurus,Person,,Oostende,Ostend,"51.225833333333334,2.9194444444444443",51.225833333333334,51.225833333333334,2.9194444444444443,2.9194444444444443,België,Pilling,Verenigd Koninkrijk,,,,,Q120729903,,
Q116620937,Julienne Elise Van De Wiele,Person,,Kortrijk,Kortrijk,"50.8275,3.265833333333333",50.8275,50.8275,3.265833333333333,3.265833333333333,België,Kortrijk,België,,,,,Q116620937,,
Q115841074,Julius Bouten,Person,,Antwerpen,Province of Antwerp,"51.216666666667,4.4166666666667",51.216666666667,51.216666666667,4.4166666666667,4.4166666666667,België,Ramsel,België,,,,,Q115841074,,
Q120489194,Julius Burrick,Person,,Waregem,Waregem,"50.881078333333335,3.4000994444444443",50.881078333333335,50.881078333333335,3.4000994444444443,3.4000994444444443,België,New York,Verenigde Staten,,,,,Q120489194,,
Q55420570,Julius Leroy,Person,,Roesbrugge-Haringe,Roesbrugge-Haringe,"50.9181,2.625",50.9181,50.9181,2.625,2.625,België,Veurne,België,,,,,Q55420570,,
Q55232762,Julius Obrie,Person,,Gent,Ghent,"51.05361111111111,3.725277777777778",51.05361111111111,51.05361111111111,3.725277777777778,3.725277777777778,België,Gent,België,,,,,Q55232762,,
Q123741345,Julius Pieter Lodewijk Vantomme,Person,,Deerlijk,Deerlijk,"50.8533,3.3533",50.8533,50.8533,3.3533,3.3533,België,Kortrijk,België,,,,,Q123741345,,
Q116508893,Justine Van De Velde,Person,http://commons.wikimedia.org/wiki/Special:FilePath/Bidprentje%20Justine%20Van%20de%20Velde.jpg,Evergem,Evergem,"51.1086,3.7075",51.1086,51.1086,3.7075,3.7075,België,Poeke,België,,,,,Q116508893,,
Q111342238,Karel Beyaert,Person,,Brugge,Bruges,"51.208888888888886,3.2241666666666666",51.208888888888886,51.208888888888886,3.2241666666666666,3.2241666666666666,België,Brugge,België,,,,,Q111342238,,
Q1950196,Karel Callebert,Person,,Roeselare,Arrondissement of Roeselare,"50.946667,3.123333",50.946667,50.946667,3.123333,3.123333,België,Blankenberge,België,,,,,Q1950196,,
Q115979996,Karel De Backer,Person,,Meulebeke,Meulebeke,"50.9497,3.2869",50.9497,50.9497,3.2869,3.2869,België,Blankenberge,België,,,,,Q115979996,,
Q2617184,Karel De Flou,Person,,Brugge,Bruges,"51.208888888888886,3.2241666666666666",51.208888888888886,51.208888888888886,3.2241666666666666,3.2241666666666666,België,Brugge,België,,,,,Q2617184,,
Q115831295,Karel Foulon,Person,,Heule,Heule,"50.8428,3.2353",50.8428,50.8428,3.2353,3.2353,België,Sint-Denijs,België,,,,,Q115831295,,
Q970833,Karel Frans Stallaert,Person,http://commons.wikimedia.org/wiki/Special:FilePath/KarelFransStallaert.jpg,Merchtem,Merchtem,"50.966666666667,4.2333333333333",50.966666666667,50.966666666667,4.2333333333333,4.2333333333333,België,Schaarbeek,België,,,,,Q970833,,
Q970833,Karel Frans Stallaert,Person,http://commons.wikimedia.org/wiki/Special:FilePath/KarelFransStallaert.jpg,Merchtem,Merchtem,"50.966666666667,4.2333333333333",50.966666666667,50.966666666667,4.2333333333333,4.2333333333333,België,Everberg,België,,,,,Q970833,,
Q41885755,Karel Heynderickx,Person,,Sint-Niklaas,Sint-Niklaas,"51.164444444444,4.1391666666667",51.164444444444,51.164444444444,4.1391666666667,4.1391666666667,België,Doesburg,Nederland,,,,,Q41885755,,
Q115819088,Karel Legein,Person,,Roeselare,Arrondissement of Roeselare,"50.946667,3.123333",50.946667,50.946667,3.123333,3.123333,België,Roeselare,België,,,,,Q115819088,,
Q119041387,Karel Lodewijk Van Raes,Person,,Geluwe,Geluwe,"50.81,3.0775",50.81,50.81,3.0775,3.0775,België,Hoboken,België,,,,,Q119041387,,
,,,,,,"50.810721,3.077446",50.810721,50.810721,3.077446,3.077446,,,,,,,,,,
Q111336261,Karel Van De Vyvere,Person,,Tielt,Arrondissement of Tielt,"51,3.3",51,51,3.3,3.3,België,Brugge,België,,,,,Q111336261,,
Q2542423,Karel de Gheldere,Person,,Torhout,Torhout,"51.06612448136476,3.10136976770668",51.06612448136476,51.06612448136476,3.10136976770668,3.10136976770668,België,Koekelare,België,,,,,Q2542423,,
Q123416923,Katarina Vanhoenacker,Person,,Sint-Denijs,Sint-Denijs,"50.7517,3.3664",50.7517,50.7517,3.3664,3.3664,België,Kortrijk,België,,,,,Q123416923,,
Q118289639,Katharine Woodlock,Person,,Dublin,Dublin,"53.34972222222222,-6.260277777777778",53.34972222222222,53.34972222222222,-6.260277777777778,-6.260277777777778,Ierland,Bath,Verenigd Koninkrijk,,,,,Q118289639,,
Q123050974,Katherine Wharton,Person,,Beverley,Beverley,"53.8425488,-0.4315677",53.8425488,53.8425488,-0.4315677,-0.4315677,Verenigd Koninkrijk,,,,,,,Q123050974,,
Q119224999,Laura Perkins,Person,,,,,,,,,,,,,,,,Q119224999,,
Q115821481,Laurentius Dehulster,Person,,Roeselare,Arrondissement of Roeselare,"50.946667,3.123333",50.946667,50.946667,3.123333,3.123333,België,Brugge,België,,,,,Q115821481,,
Q120472271,Lawrence Toole,Person,,Liverpool,Liverpool,"53.407222222222224,-2.9916666666666667",53.407222222222224,53.407222222222224,-2.9916666666666667,-2.9916666666666667,Verenigd Koninkrijk,Manchester,Verenigd Koninkrijk,,,,,Q120472271,,
Q118555164,Leo Lodewijk Hubert Simons,Person,,Roermond,Roermond,"51.193333333333335,5.987222222222222",51.193333333333335,51.193333333333335,5.987222222222222,5.987222222222222,Nederland,,,,,,,Q118555164,,
Q115836854,Leo Vandorpe,Person,,Zevekote,Zevekote,"51.1372,2.9211",51.1372,51.1372,2.9211,2.9211,België,Rollegem-Kapelle,België,,,,,Q115836854,,
Q119040262,Leon Auguste Joseph Marie Verhoef,Person,,Brugge,Bruges,"51.208888888888886,3.2241666666666666",51.208888888888886,51.208888888888886,3.2241666666666666,3.2241666666666666,België,Brugge,België,,,,,Q119040262,,
Q115818781,Leon Verwilghen,Person,,,,,,,,,,,,,,,,Q115818781,,
Q2779054,Leonard Lodewijk De Bo,Person,http://commons.wikimedia.org/wiki/Special:FilePath/Leonard%20Lodewijk%20De%20Bo.jpg,Beveren,Beveren,"51.2,4.25",51.2,51.2,4.25,4.25,België,Poperinge,België,,,,,Q2779054,,
Q115835156,Leonardus Lootens,Person,,Anzegem,Anzegem,"50.8336,3.4783",50.8336,50.8336,3.4783,3.4783,België,Lichtervelde,België,,,,,Q115835156,,
Q110039170,Leonardus Nuttin,Person,,Wevelgem,Wevelgem,"50.8081,3.1839",50.8081,50.8081,3.1839,3.1839,België,Zarren,België,,,,,Q110039170,,
Q115844668,Leonardus Vandemaele,Person,,Tielt,Arrondissement of Tielt,"51,3.3",51,51,3.3,3.3,België,Hooglede,België,,,,,Q115844668,,
Q123050504,Leonida Euphrasia Demonie,Person,,Aarsele,Aarsele,"50.9964,3.4211",50.9964,50.9964,3.4211,3.4211,België,,,,,,,Q123050504,,
Q116687356,Leonie Manceau,Person,,Torhout,Torhout,"51.06612448136476,3.10136976770668",51.06612448136476,51.06612448136476,3.10136976770668,3.10136976770668,België,,,,,,,Q116687356,,
Q131957313,Leonie Sophie Marie De Ketelaere,Person,,Assebroek,Assebroek,"51.1964,3.2536",51.1964,51.1964,3.2536,3.2536,België,,,,,,,Q131957313,,
Q125516501,Leopold Josephus Marie Nobels,Person,,,,,,,,,,,,,,,,Q125516501,,
Q118998340,Leopold Pycke,Person,,Sint-Kornelis-Horebeke,Sint-Kornelis-Horebeke,"50.835,3.6969",50.835,50.835,3.6969,3.6969,België,Highbury,Verenigd Koninkrijk,,,,,Q118998340,,
Q2619202,Leopold Slosse,Person,,Marke,Marche,"43.316666666667,13",43.316666666667,43.316666666667,13,13,België,Rumbeke,België,,,,,Q2619202,,
Q114945031,Livinus Bruneel,Person,,Poperinge,Poperinge,"50.8547,2.7256",50.8547,50.8547,2.7256,2.7256,België,Brugge,België,,,,,Q114945031,,
Q28973666,Lodewijk Roersch,Person,,Maastricht,Maastricht,"50.866666666667,5.6833333333333",50.866666666667,50.866666666667,5.6833333333333,5.6833333333333,Nederland,Luik,België,,,,,Q28973666,,
Q13769746,Lodewijk Scharpé,Person,http://commons.wikimedia.org/wiki/Special:FilePath/GlasraamLodewijkScharpe.jpg,Tielt,Arrondissement of Tielt,"51,3.3",51,51,3.3,3.3,België,Betekom,België,,,,,Q13769746,,
Q2426280,Lodewijk Van Haecke,Person,http://commons.wikimedia.org/wiki/Special:FilePath/Portret%20van%20pastoor%20L.%20Van%20Haecke%2C%201897%2C%20Groeningemuseum%2C%200040504000.jpg,Brugge,Bruges,"51.208888888888886,3.2241666666666666",51.208888888888886,51.208888888888886,3.2241666666666666,3.2241666666666666,België,Brugge,België,,,,,Q2426280,,
Q56036067,Lodewijk Willem Schuermans,Person,,Kampenhout,Kampenhout,"50.94131,4.54958",50.94131,50.94131,4.54958,4.54958,België,Wilsele,België,,,,,Q56036067,,
Q119794988,Louis Beyaert-Defoort,Person,,,,,,,,,,,,,,,,Q119794988,,
Q86735347,Louis David Petit,Person,,Amsterdam,Amsterdam,"52.36666666666667,4.883333333333333",52.36666666666667,52.36666666666667,4.883333333333333,4.883333333333333,Nederland,Leiden,Nederland,,,,,Q86735347,,
Q118120903,Louis De Plancke,Person,,Brugge,Bruges,"51.208888888888886,3.2241666666666666",51.208888888888886,51.208888888888886,3.2241666666666666,3.2241666666666666,België,Brugge,België,,,,,Q118120903,,
Q2134167,Louis Gilliodts,Person,,Brugge,Bruges,"51.208888888888886,3.2241666666666666",51.208888888888886,51.208888888888886,3.2241666666666666,3.2241666666666666,België,Brugge,België,,,,,Q2134167,,
Q115818009,Louis Goormachtigh,Person,,Dottenijs,Dottignies,"50.7272,3.3031",50.7272,50.7272,3.3031,3.3031,België,Heule,België,,,,,Q115818009,,
Q119003821,Louis Judocus Rooms,Person,,Heusden,Heusden,"51.69975,5.16598",51.69975,51.69975,5.16598,5.16598,België,Oudenaarde,België,,,,,Q119003821,,
Q119627464,Louis Lorthioir,Person,,,,,,,,,,,,,,,,Q119627464,,
Q125819387,Louis Vander Heyde,Person,,Alveringem,Alveringem,"51.0111,2.7108",51.0111,51.0111,2.7108,2.7108,België,Poperinge,België,,,,,Q125819387,,
Q115837633,Louis Vanheule,Person,,Halewijn,Halluin,"50.782777777778,3.1247222222222",50.782777777778,50.782777777778,3.1247222222222,3.1247222222222,Frankrijk,Komen,België,,,,,Q115837633,,
Q121078208,Louis Vercruysse,Person,,Kortrijk,Kortrijk,"50.8275,3.265833333333333",50.8275,50.8275,3.265833333333333,3.265833333333333,België,Kortrijk,België,,,,,Q121078208,,
Q119637011,Louis Wallays,Person,,,,,,,,,,,,,,,,Q119637011,,
Q125351404,Louisa Maria Anna Verdbois,Person,,Bouillon,Le Bouillon,"48.561666666667,0.10333333333333",48.561666666667,48.561666666667,0.10333333333333,0.10333333333333,België,Kortrijk,België,,,,,Q125351404,,
Q128904091,Louise Adèle Pauline Van Brabant,Person,,Duinkerke,Dunkirk,"51.037777777778,2.3763888888889",51.037777777778,51.037777777778,2.3763888888889,2.3763888888889,Frankrijk,Menen,België,,,,,Q128904091,,
Q20902162,Louise Gezelle,Person,http://commons.wikimedia.org/wiki/Special:FilePath/Foto%20van%20Louise%20Gezelle%20en%20Stijn%20Streuvels.jpg,Brugge,Bruges,"51.208888888888886,3.2241666666666666",51.208888888888886,51.208888888888886,3.2241666666666666,3.2241666666666666,België,Steenbrugge,België,,,,,Q20902162,,
Q115835025,Louise Joséphine Doyen,Person,,Oostende,Ostend,"51.225833333333334,2.9194444444444443",51.225833333333334,51.225833333333334,2.9194444444444443,2.9194444444444443,België,Brugge,België,,,,,Q115835025,,
Q117246781,Louise Sidonie Vervaet,Person,,Sint-Margriete,Sint-Margriete,"51.2822,3.5472",51.2822,51.2822,3.5472,3.5472,België,Biervliet,Nederland,,,,,Q117246781,,
Q120855780,Lucy Weguelin,Person,,Brighton,Brighton,"33.4389,-86.9453",33.4389,33.4389,-86.9453,-86.9453,Verenigd Koninkrijk,Bath,Verenigd Koninkrijk,,,,,Q120855780,,
Q1851297,Léon van Ockerhout,Person,,Brugge,Bruges,"51.208888888888886,3.2241666666666666",51.208888888888886,51.208888888888886,3.2241666666666666,3.2241666666666666,België,Loppem,België,,,,,Q1851297,,
Q117227189,Léonie Pauline Marie Bersou,Person,,Kortrijk,Kortrijk,"50.8275,3.265833333333333",50.8275,50.8275,3.265833333333333,3.265833333333333,België,,,,,,,Q117227189,,
Q64727835,Macarios Haddad,Person,,,,,,,,,,,,,,,,Q64727835,,
Q37793252,Marcel Provence,Person,,Marseille,Marseille,"43.296666666667,5.3763888888889",43.296666666667,43.296666666667,5.3763888888889,5.3763888888889,Frankrijk,Aix-en-Provence,Frankrijk,,,,,Q37793252,,
Q118175361,Marcel Van Dromme,Person,,Westouter,Westouter,"50.7978,2.7456",50.7978,50.7978,2.7456,2.7456,België,Lo,België,,,,,Q118175361,,
Q116688354,Margareta Laura Augusta Lassence,Person,,Luik,Province of Liege,"50.633333333333,5.5666666666667",50.633333333333,50.633333333333,5.5666666666667,5.5666666666667,België,,,,,,,Q116688354,,
Q116621811,Marguerite Marie Josephine Sonck,Person,,Denderleeuw,Denderleeuw,"50.883333333333,4.0833333333333",50.883333333333,50.883333333333,4.0833333333333,4.0833333333333,België,Willemstad,Curaçao,,,,,Q116621811,,
Q116621725,Maria Constantia Gezelle,Person,,Heule,Heule,"50.8428,3.2353",50.8428,50.8428,3.2353,3.2353,België,Heule,België,,,,,Q116621725,,
Q116620833,Maria De Bo,Person,,Beveren,Beveren,"51.2,4.25",51.2,51.2,4.25,4.25,België,,,,,,,Q116620833,,
Q128034737,Maria Euphemia Verbanck,Person,,Zarren,Zarren,"51.0178,2.9589",51.0178,51.0178,2.9589,2.9589,België,Kortrijk,België,,,,,Q128034737,,
Q125342034,Maria Helena Pieters,Person,,Reninge,Sallanches,"45.936388888889,6.6319444444444",45.936388888889,45.936388888889,6.6319444444444,6.6319444444444,België,Reninge,België,,,,,Q125342034,,
Q122798023,Maria Ida Jacobina Daerden,Person,,Tongeren,Arrondissement of Tongeren,"50.85,5.5",50.85,50.85,5.5,5.5,België,Kortrijk,België,,,,,Q122798023,,
Q122790642,Maria Joanna Maes,Person,,Zwevegem,Zwevegem,"50.8,3.3333333333333",50.8,50.8,3.3333333333333,3.3333333333333,België,Brugge,België,,,,,Q122790642,,
Q116621244,Maria Josepha Augusta Van Doorne,Person,,Poeke,Poeke,"51.0411,3.4436",51.0411,51.0411,3.4436,3.4436,België,Meulebeke,België,,,,,Q116621244,,
Q116659577,Maria Josepha Gezelle,Person,,Heule,Heule,"50.8428,3.2353",50.8428,50.8428,3.2353,3.2353,België,Heule,België,,,,,Q116659577,,
Q123414712,Maria Juliana Lucia Delbaere,Person,,Ingooigem,Ingooigem,"50.8192,3.4319",50.8192,50.8192,3.4319,3.4319,België,Brugge,België,,,,,Q123414712,,
Q117265039,Maria Ludovica Charlotta Lauwers,Person,,Ingelmunster,Ingelmunster,"50.9208,3.2533",50.9208,50.9208,3.2533,3.2533,België,,,,,,,Q117265039,,
Q116621699,Maria Magdalena Gezelle,Person,http://commons.wikimedia.org/wiki/Special:FilePath/Foto%20Philomena%20De%20Smet%2C%20Maria%20Gezelle%20en%20Hortense%20Gezelle%20%28cropped%29.jpg,Brugge,Bruges,"51.208888888888886,3.2241666666666666",51.208888888888886,51.208888888888886,3.2241666666666666,3.2241666666666666,België,Loppem,België,,,,,Q116621699,,
Q117229566,Maria Philomena D'Hondt,Person,,Gent,Ghent,"51.05361111111111,3.725277777777778",51.05361111111111,51.05361111111111,3.725277777777778,3.725277777777778,België,Kortrijk,België,,,,,Q117229566,,
Q117244772,Marie Antoinette Descamps,Person,,Harelbeke,Harelbeke,"50.8567,3.3131",50.8567,50.8567,3.3131,3.3131,België,Kortrijk,België,,,,,Q117244772,,
Q125257556,Marie Bert,Person,,Gent,Ghent,"51.05361111111111,3.725277777777778",51.05361111111111,51.05361111111111,3.725277777777778,3.725277777777778,België,Gent,België,,,,,Q125257556,,
Q123554207,Marie Colette Joséphine Caïmo,Person,,Schelle,Schelle,"51.133333333333,4.3333333333333",51.133333333333,51.133333333333,4.3333333333333,4.3333333333333,België,Oostkamp,België,,,,,Q123554207,,
Q116672748,Marie Elise Amandine Lateur,Person,http://commons.wikimedia.org/wiki/Special:FilePath/Foto%20Caesar%20Gezelle%2C%20Philomena%20De%20Smet%20en%20Elisa%20Lateur.jpg,Roubaix,Roubaix,"50.69,3.1816666666667",50.69,50.69,3.1816666666667,3.1816666666667,Frankrijk,Machelen,België,,,,,Q116672748,,
Q131928167,Marie Flore Joseph Goemaere,Person,,Kortrijk,Kortrijk,"50.8275,3.265833333333333",50.8275,50.8275,3.265833333333333,3.265833333333333,België,,,,,,,Q131928167,,
Q123606015,Marie Julie Eugénie Goddyn,Person,,Sint-Joost-ten-Node,Saint-Josse-ten-Noode,"50.850833333333334,4.369166666666667",50.850833333333334,50.850833333333334,4.369166666666667,4.369166666666667,België,Ukkel,België,,,,,Q123606015,,
Q129072389,Marie Mélanie Jeanne Vanackere,Person,,Menen,Menen,"50.795555555556,3.1216666666667",50.795555555556,50.795555555556,3.1216666666667,3.1216666666667,België,,,,,,,Q129072389,,
Q125359798,Marie Philomene Van Walleghem,Person,,Meulebeke,Meulebeke,"50.9497,3.2869",50.9497,50.9497,3.2869,3.2869,België,,,,,,,Q125359798,,
Q125334130,Marie Sophie Devys,Person,,Kortrijk,Kortrijk,"50.8275,3.265833333333333",50.8275,50.8275,3.265833333333333,3.265833333333333,België,Kortrijk,België,,,,,Q125334130,,
Q123399726,Marie Sophie Joséphine Delva,Person,http://commons.wikimedia.org/wiki/Special:FilePath/Foto%20Marie%20Sophie%20Bruneel-Delva.jpg,Kortrijk,Kortrijk,"50.8275,3.265833333333333",50.8275,50.8275,3.265833333333333,3.265833333333333,België,Ieper,België,,,,,Q123399726,,
Q122794969,Marie Stéphanie Vantomme,Person,,Kuurne,Kuurne,"50.8519,3.2861",50.8519,50.8519,3.2861,3.2861,België,,,,,,,Q122794969,,
Q128903989,Marie Thérèse Joseph Anne Louise Julie Flore Clotilde Roels,Person,,Brugge,Bruges,"51.208888888888886,3.2241666666666666",51.208888888888886,51.208888888888886,3.2241666666666666,3.2241666666666666,België,,,,,,,Q128903989,,
Q122753360,Marie-Antoinette Pollenus,Person,,Hasselt,Hasselt,"50.930480555556,5.3384972222222",50.930480555556,50.930480555556,5.3384972222222,5.3384972222222,België,Gent,België,,,,,Q122753360,,
Q116509131,Marie-Sophie Deschryver,Person,,Wervik,Wervik,"50.7797,3.04",50.7797,50.7797,3.04,3.04,België,Rijsel,Frankrijk,,,,,Q116509131,,
Q125361599,Marion Violet Thomas,Person,,Norfolk,Norfolk,"52.6725,0.95",52.6725,52.6725,0.95,0.95,Verenigd Koninkrijk,Brugge,België,,,,,Q125361599,,
Q119217815,Martinus Coune,Person,,Veulen,Veulen,"50.7631,5.305",50.7631,50.7631,5.305,5.305,België,Veulen,België,,,,,Q119217815,,
Q116510958,Mary Ann F. Andrewes,Person,,Brentford,Brentford,"51.4861,-0.3101",51.4861,51.4861,-0.3101,-0.3101,Verenigd Koninkrijk,Kingston upon Thames,Verenigd Koninkrijk,,,,,Q116510958,,
Q117246934,Mary Ann Walton,Person,,Londen,London,"51.507222222222,-0.1275",51.507222222222,51.507222222222,-0.1275,-0.1275,Verenigd Koninkrijk,New York,Verenigde Staten,,,,,Q117246934,,
Q116510998,Mary Anne Macdaniel,Person,,Londen,London,"51.507222222222,-0.1275",51.507222222222,51.507222222222,-0.1275,-0.1275,Verenigd Koninkrijk,,,,,,,Q116510998,,
Q125357784,Mary Catherine Cole,Person,,Bristol,Bristol,"51.45361111111111,-2.5975",51.45361111111111,51.45361111111111,-2.5975,-2.5975,Verenigd Koninkrijk,Gent,België,,,,,Q125357784,,
Q75320316,Mary Constantia Clifford,Person,http://commons.wikimedia.org/wiki/Special:FilePath/Foto%20Mary%20Clifford.jpg,Devon,Devon,"50.7,-3.8",50.7,50.7,-3.8,-3.8,Verenigd Koninkrijk,Warwick,Verenigd Koninkrijk,,,,,Q75320316,,
Q122780659,Mary Elizabeth Johnson,Person,,Q1425428,Newcastle upon Tyne,"54.977777777778,-1.6133333333333",54.977777777778,54.977777777778,-1.6133333333333,-1.6133333333333,Verenigd Koninkrijk,,,,,,,Q122780659,,
Q75279907,Mary Isabel Lucy Dormer,Person,,Warwick,Warwick,"41.716666666667,-71.416666666667",41.716666666667,41.716666666667,-71.416666666667,-71.416666666667,Verenigd Koninkrijk,Q67574558,Verenigd Koninkrijk,,,,,Q75279907,,
Q122842204,Mary Louisa Farbrother,Person,,Oxford,Oxford,"51.751944444444,-1.2577777777778",51.751944444444,51.751944444444,-1.2577777777778,-1.2577777777778,Verenigd Koninkrijk,Londen,Verenigd Koninkrijk,,,,,Q122842204,,
Q116621328,Mary Lucy Vavasour,Person,,Yorkshire,Yorkshire,"53.958333333333,-1.0833333333333",53.958333333333,53.958333333333,-1.0833333333333,-1.0833333333333,Verenigd Koninkrijk,Hammersmith,Verenigd Koninkrijk,,,,,Q116621328,,
Q116621363,Mary Margaret Weale,Person,,Brugge,Bruges,"51.208888888888886,3.2241666666666666",51.208888888888886,51.208888888888886,3.2241666666666666,3.2241666666666666,België,Londen,Verenigd Koninkrijk,,,,,Q116621363,,
Q116621552,Mathilde Catteeuw,Person,http://commons.wikimedia.org/wiki/Special:FilePath/Doodsprentje%20Mathilde%20Catteeuw.tif,Kortrijk,Kortrijk,"50.8275,3.265833333333333",50.8275,50.8275,3.265833333333333,3.265833333333333,België,Kortrijk,België,,,,,Q116621552,,
Q115852702,Mathilde Germonprez,Person,,Nukerke,Nukerke,"50.7969,3.5947",50.7969,50.7969,3.5947,3.5947,België,Staden,België,,,,,Q115852702,,
Q125365471,Mathilde Jeanne Marie de Robiano,Person,,Rumillies,Rumillies,"50.62,3.4378",50.62,50.62,3.4378,3.4378,België,Rumillies,België,,,,,Q125365471,,
Q123050722,Mathilde Sophie Theresia Renodeyn,Person,,Brugge,Bruges,"51.208888888888886,3.2241666666666666",51.208888888888886,51.208888888888886,3.2241666666666666,3.2241666666666666,België,Brugge,België,,,,,Q123050722,,
Q75320317,Maurice Denis Kavanagh,Person,,Penzance,Penzance,"50.12139,-5.53685",50.12139,50.12139,-5.53685,-5.53685,Verenigd Koninkrijk,Prestwich,Verenigd Koninkrijk,,,,,Q75320317,,
Q121053317,Maurice Vander Haeghen,Person,,Gent,Ghent,"51.05361111111111,3.725277777777778",51.05361111111111,51.05361111111111,3.725277777777778,3.725277777777778,België,Gent,België,,,,,Q121053317,,
Q2413334,Max Rooses,Person,http://commons.wikimedia.org/wiki/Special:FilePath/Max%20Rooses.jpg,Antwerpen,Province of Antwerp,"51.216666666667,4.4166666666667",51.216666666667,51.216666666667,4.4166666666667,4.4166666666667,België,Antwerpen,België,,,,,Q2413334,,
Q125559455,Medardus Van De Poele,Person,,Brugge,Bruges,"51.208888888888886,3.2241666666666666",51.208888888888886,51.208888888888886,3.2241666666666666,3.2241666666666666,België,Sint-Omaars,Frankrijk,,,,,Q125559455,,
Q118612085,Michael Buckley,Person,,Cahir,Cahir Castle,"52.37455,-7.92719",52.37455,52.37455,-7.92719,-7.92719,Ierland,Youghal,Ierland,,,,,Q118612085,,
Q115826199,Modest Delplace,Person,,Torhout,Torhout,"51.06612448136476,3.10136976770668",51.06612448136476,51.06612448136476,3.10136976770668,3.10136976770668,België,Brugge,België,,,,,Q115826199,,
Q15982597,Monica De Vriese,Person,http://commons.wikimedia.org/wiki/Special:FilePath/Bidprentje%20Monica%20De%20Vriese.jpg,Wingene,Wingene,"51.05,3.2666666666667",51.05,51.05,3.2666666666667,3.2666666666667,België,Heule,België,,,,,Q15982597,,
Q18655152,Napoleon de Pauw,Person,http://commons.wikimedia.org/wiki/Special:FilePath/NapoleonDePauw.jpg,Gent,Ghent,"51.05361111111111,3.725277777777778",51.05361111111111,51.05361111111111,3.725277777777778,3.725277777777778,België,Gent,België,,,,,Q18655152,,
Q672816,Nicholas Wiseman,Person,http://commons.wikimedia.org/wiki/Special:FilePath/Wiseman.jpg,Sevilla,Seville,"37.38861111111111,-5.995555555555556",37.38861111111111,37.38861111111111,-5.995555555555556,-5.995555555555556,Spanje,Londen,Verenigd Koninkrijk,,,,,Q672816,,
Q116621407,Octavie Petyt,Person,,Brugge,Bruges,"51.208888888888886,3.2241666666666666",51.208888888888886,51.208888888888886,3.2241666666666666,3.2241666666666666,België,Brugge,België,,,,,Q116621407,,
Q122833200,Octavie Van Gillewe,Person,,Zarren,Zarren,"51.0178,2.9589",51.0178,51.0178,2.9589,2.9589,België,Kortrijk,België,,,,,Q122833200,,
